,index,location,Population,Area,PD,Province,code,provCode,lat,lon
0,0,BANGUED,48163.0,105.7,456.0,Abra,140101000,140100000,17.5881847,120.6314948
1,1,BOLINEY,3573.0,216.92,16.0,Abra,140102000,140100000,17.3674569,120.8728615
2,2,BUCAY,17115.0,107.17,160.0,Abra,140103000,140100000,17.5301886,120.7234992
3,3,BUCLOC,2501.0,63.77,39.0,Abra,140104000,140100000,17.4437463,120.8422548
4,4,DAGUIOMAN,2088.0,114.37,18.0,Abra,140105000,140100000,17.4361335,120.9646866
5,5,DANGLAS,4192.0,156.02,27.0,Abra,140106000,140100000,17.7449596,120.6429991
6,6,DOLORES,11315.0,47.45,238.0,Abra,140107000,140100000,17.6507819,120.7292472
7,7,LA PAZ,15437.0,51.41,300.0,Abra,140108000,140100000,17.6477334,120.6545022
8,8,LACUB,3403.0,295.3,12.0,Abra,140109000,140100000,17.6893614,120.9646866
9,9,LAGANGILANG,14255.0,101.44,141.0,Abra,140110000,140100000,17.624061,120.792458
10,10,LAGAYAN,4499.0,215.97,21.0,Abra,140111000,140100000,17.7714339,120.734995
11,11,LANGIDEN,3198.0,116.29,28.0,Abra,140112000,140100000,17.6038662,120.5394232
12,12,LICUAN-BAAY,4689.0,256.42,18.0,Abra,140113000,140100000,17.5785363,120.8728615
13,13,LUBA,6339.0,148.27,43.0,Abra,140114000,140100000,17.3141801,120.6890055
14,14,MALIBCONG,3428.0,283.17,12.0,Abra,140115000,140100000,17.5969743,121.0105733
15,15,MANABO,10761.0,110.95,97.0,Abra,140116000,140100000,17.390888,120.734995
16,16,PEÑARRUBIA,6640.0,38.29,173.0,Abra,140117000,140100000,17.5419536,120.6545022
17,17,PIDIGAN,12185.0,49.15,248.0,Abra,140118000,140100000,17.5364447,120.5624474
18,18,PILAR,10223.0,66.1,155.0,Abra,140119000,140100000,17.3844671,120.5854674
19,19,SALLAPADAN,6622.0,128.62,51.0,Abra,140120000,140100000,17.4925404,120.7619678
20,20,SAN ISIDRO,4574.0,48.07,95.0,Abra,140121000,140100000,17.4800566,120.6142365
21,21,SAN JUAN,9867.0,64.08,154.0,Abra,140122000,140100000,17.6809179,120.7315061
22,22,SAN QUINTIN,5438.0,66.59,82.0,Abra,140123000,140100000,17.5230804,120.5163949
23,23,TAYUM,14467.0,61.14,237.0,Abra,140124000,140100000,17.6014831,120.6775054
24,24,TINEG,5097.0,744.8,7.0,Abra,140125000,140100000,17.8412338,120.9417368
25,25,TUBO,5699.0,409.87,14.0,Abra,140126000,140100000,17.265891,120.8498944
26,26,VILLAVICIOSA,5392.0,102.93,52.0,Abra,140127000,140100000,17.3939539,120.6545022
27,27,BUENAVISTA,61614.0,475.61,130.0,Agusan Del Norte,160201000,160200000,8.7859265,125.3685679
28,28,BUTUAN,337063.0,816.62,413.0,Agusan Del Norte,160202000,160200000,8.9475377,125.5406234
29,29,CABADBARAN,73639.0,214.44,343.0,Agusan Del Norte,160203000,160200000,9.122192499999999,125.537603
30,30,CARMEN,20839.0,311.02,67.0,Agusan Del Norte,160204000,160200000,8.9387242,125.2478112
31,31,JABONGA,23184.0,293,79.0,Agusan Del Norte,160205000,160200000,9.329360099999999,125.5529398
32,32,KITCHARAO,18659.0,171.92,109.0,Agusan Del Norte,160206000,160200000,9.4206582,125.620484
33,33,LAS NIEVES,28414.0,582.69,49.0,Agusan Del Norte,160207000,160200000,8.665107899999999,125.4562795
34,34,MAGALLANES,21007.0,44.31,474.0,Agusan Del Norte,160208000,160200000,9.035643199999999,125.5548422
35,35,NASIPIT,41957.0,144.4,291.0,Agusan Del Norte,160209000,160200000,8.9714897,125.3518224
36,36,REMEDIOS T. ROMUALDEZ,16058.0,79.15,203.0,Agusan Del Norte,160212000,160200000,9.060744399999999,125.6642155
37,37,SANTIAGO,24200.0,275.61,88.0,Agusan Del Norte,160210000,160200000,9.2416621,125.6314191
38,38,TUBAY,24932.0,138.09,181.0,Agusan Del Norte,160211000,160200000,9.2036187,125.5548422
39,39,BAYUGAN,103202.0,688.77,150.0,Agusan Del Sur,160301000,160300000,8.7143526,125.7480952
40,40,BUNAWAN,45151.0,512.16,88.0,Agusan Del Sur,160302000,160300000,8.216467399999999,126.0458437
41,41,ESPERANZA,54801.0,1355.48,40.0,Agusan Del Sur,160303000,160300000,8.5655111,125.5220012
42,42,LA PAZ,28217.0,1481.12,19.0,Agusan Del Sur,160304000,160300000,8.2611393,125.6095474
43,43,LORETO,42501.0,1462.74,29.0,Agusan Del Sur,160305000,160300000,8.1855481,125.8540117
44,44,PROSPERIDAD,82631.0,505.15,164.0,Agusan Del Sur,160306000,160300000,8.6023686,125.8716137
45,45,ROSARIO,46683.0,385.05,121.0,Agusan Del Sur,160307000,160300000,8.3126164,126.0036149
46,46,SAN FRANCISCO,74542.0,392.53,190.0,Agusan Del Sur,160308000,160300000,8.5089765,125.9696657
47,47,SAN LUIS,32109.0,950.5,34.0,Agusan Del Sur,160309000,160300000,8.4176023,125.5220012
48,48,SANTA JOSEFA,26729.0,341.8,78.0,Agusan Del Sur,160310000,160300000,7.981127399999999,126.0240861
49,49,SIBAGAT,30442.0,567.82,54.0,Agusan Del Sur,160314000,160300000,8.9660918,125.7625241
50,50,TALACOGON,38374.0,405.25,95.0,Agusan Del Sur,160311000,160300000,8.36972,125.8061779
51,51,TRENTO,51565.0,555.7,93.0,Agusan Del Sur,160312000,160300000,8.052569799999999,126.2196853
52,52,VERUELA,43706.0,385.45,113.0,Agusan Del Sur,160313000,160300000,8.0307198,125.8934136
53,53,ALTAVAS,24619.0,109.05,226.0,Aklan,60401000,60400000,11.5189263,122.4580469
54,54,BALETE,28920.0,118.93,243.0,Aklan,60402000,60400000,11.5301897,122.367428
55,55,BANGA,39505.0,84.53,467.0,Aklan,60403000,60400000,11.5755637,122.3220894
56,56,BATAN,32032.0,79.22,404.0,Aklan,60404000,60400000,11.5699736,122.5259596
57,57,BURUANGA,19003.0,88.5,215.0,Aklan,60405000,60400000,11.8259677,121.9131761
58,58,IBAJAY,49564.0,158.9,312.0,Aklan,60406000,60400000,11.7518624,122.1859572
59,59,KALIBO,80605.0,50.75,1588.0,Aklan,60407000,60400000,11.6892241,122.367428
60,60,LEZO,15224.0,23.4,651.0,Aklan,60408000,60400000,11.6750175,122.3220894
61,61,LIBACAO,28241.0,254.98,111.0,Aklan,60409000,60400000,11.4109251,122.2880726
62,62,MADALAG,18389.0,269.6,68.0,Aklan,60410000,60400000,11.4617735,122.1973081
63,63,MAKATO,27262.0,64.6,422.0,Aklan,60411000,60400000,11.7006146,122.2767313
64,64,MALAY,52973.0,66.01,802.0,Aklan,60412000,60400000,11.9003045,121.958687
65,65,MALINAO,23194.0,186.01,125.0,Aklan,60413000,60400000,11.6152751,122.2427
66,66,NABAS,36435.0,96.82,376.0,Aklan,60414000,60400000,11.8517124,122.026918
67,67,NEW WASHINGTON,45007.0,66.69,675.0,Aklan,60415000,60400000,11.643754,122.4127472
68,68,NUMANCIA,31934.0,28.84,1107.0,Aklan,60416000,60400000,11.7176683,122.3390936
69,69,TANGALAN,21916.0,74.59,294.0,Aklan,60417000,60400000,11.7461613,122.2313539
70,70,BACACAY,68906.0,122.13,564.0,Albay,50501000,50500000,13.2958591,123.8746152
71,71,CAMALIG,66904.0,130.9,511.0,Albay,50502000,50500000,13.1658685,123.6386144
72,72,DARAGA,126595.0,118.64,1067.0,Albay,50503000,50500000,13.1028156,123.6958809
73,73,GUINOBATAN,82361.0,244.43,337.0,Albay,50504000,50500000,13.1541858,123.5504076
74,74,JOVELLAR,17308.0,105.4,164.0,Albay,50505000,50500000,13.0426153,123.5616058
75,75,LEGAZPI,196639.0,153.7,1279.0,Albay,50506000,50500000,13.1390621,123.7437995
76,76,LIBON,75172.0,222.76,337.0,Albay,50507000,50500000,13.2606549,123.3710571
77,77,LIGAO,111399.0,246.75,451.0,Albay,50508000,50500000,13.1724166,123.4943968
78,78,MALILIPOT,37785.0,44.13,856.0,Albay,50509000,50500000,13.299305,123.7182415
79,79,MALINAO,45301.0,107.5,421.0,Albay,50510000,50500000,13.3810615,123.6399562
80,80,MANITO,24707.0,107.4,230.0,Albay,50511000,50500000,13.0681235,123.8634544
81,81,OAS,67960.0,263.61,258.0,Albay,50512000,50500000,13.1739119,123.4159263
82,82,PIO DURAN,46693.0,133.7,349.0,Albay,50513000,50500000,13.0473044,123.4607744
83,83,POLANGUI,88221.0,145.3,607.0,Albay,50514000,50500000,13.3209614,123.5056016
84,84,RAPU-RAPU,36920.0,155.3,238.0,Albay,50515000,50500000,13.2407755,124.041865
85,85,SANTO DOMINGO,34967.0,51.22,683.0,Albay,50516000,50500000,13.2326739,123.7629465
86,86,TABACO,133868.0,117.14,1143.0,Albay,50517000,50500000,13.3240963,123.645139
87,87,TIWI,53120.0,105.76,474.0,Albay,50518000,50500000,13.4612024,123.6399562
88,88,ANINI-Y,21201.0,66.17,320.0,Antique,60601000,60600000,10.4515207,121.958687
89,89,BARBAZA,22704.0,154.36,147.0,Antique,60602000,60600000,11.2231318,122.0541271
90,90,BELISON,13539.0,19.78,684.0,Antique,60603000,60600000,10.8475866,121.9871217
91,91,BUGASONG,33642.0,203.71,165.0,Antique,60604000,60600000,11.1016314,122.1405413
92,92,CALUYA,35496.0,132.13,269.0,Antique,60605000,60600000,12.0684185,121.3908982
93,93,CULASI,41228.0,228.56,180.0,Antique,60606000,60600000,11.433122,122.1064668
94,94,HAMTIC,48592.0,113.03,430.0,Antique,60608000,60600000,10.6518851,122.0155491
95,95,LAUA-AN,26072.0,100.72,259.0,Antique,60609000,60600000,11.1637611,122.1178261
96,96,LIBERTAD,16429.0,97,169.0,Antique,60610000,60600000,11.7802927,121.958687
97,97,PANDAN,34333.0,113.98,301.0,Antique,60611000,60600000,11.74214,122.0994209
98,98,PATNONGON,37176.0,167.92,221.0,Antique,60612000,60600000,10.9230273,122.0610174
99,99,SAN JOSE DE BUENAVISTA,62534.0,48.56,1288.0,Antique,60613000,60600000,10.7489069,121.9412608
100,100,SAN REMIGIO,31935.0,406.98,78.0,Antique,60614000,60600000,10.9071134,122.1973081
101,101,SEBASTE,17907.0,111.64,160.0,Antique,60615000,60600000,11.5809775,122.1178261
102,102,SIBALOM,60306.0,201.3,300.0,Antique,60616000,60600000,10.7650193,122.0610174
103,103,TIBIAO,26748.0,177.42,151.0,Antique,60617000,60600000,11.2953463,122.0585226
104,104,TOBIAS FORNIER,33046.0,112.12,295.0,Antique,60607000,60600000,10.4994417,121.9700618
105,105,VALDERRAMA,19124.0,273.79,70.0,Antique,60618000,60600000,11.0652099,122.1973081
106,106,CALANASAN,12604.0,1256.15,10.0,Apayao,148101000,148100000,18.2479181,121.03351
107,107,CONNER,26051.0,694.3,38.0,Apayao,148102000,148100000,17.7929294,121.2168466
108,108,FLORA,17391.0,324.4,54.0,Apayao,148103000,148100000,18.1145991,121.422761
109,109,KABUGAO,15537.0,935.12,17.0,Apayao,148104000,148100000,17.9779378,121.1252135
110,110,LUNA,19063.0,606.04,31.0,Apayao,148105000,148100000,18.2995338,121.2168466
111,111,PUDTOL,14925.0,401.02,37.0,Apayao,148106000,148100000,18.1393236,121.2855249
112,112,SANTA MARCELA,13613.0,196.32,69.0,Apayao,148107000,148100000,18.291778,121.43419
113,113,BALER,39562.0,92.55,427.0,Aurora,37701000,37700000,15.733607,121.57125
114,114,CASIGURAN,24313.0,715.43,34.0,Aurora,37702000,37700000,16.2277929,122.0633195
115,115,DILASAG,15835.0,306.25,52.0,Aurora,37703000,37700000,16.4374658,122.151897
116,116,DINALUNGAN,11322.0,316.85,36.0,Aurora,37704000,37700000,16.150936,121.8790306
117,117,DINGALAN,25482.0,304.55,84.0,Aurora,37705000,37700000,15.4000077,121.3780165
118,118,DIPACULAO,29736.0,361.64,82.0,Aurora,37706000,37700000,15.984298,121.6331088
119,119,MARIA AURORA,40734.0,426.19,96.0,Aurora,37707000,37700000,15.801574,121.4594947
120,120,SAN LUIS,27352.0,623.86,44.0,Aurora,37708000,37700000,15.6357233,121.4684703
121,121,AKBAR,17531.0,181,97.0,Basilan,150708000,150700000,6.6490817,122.2143323
122,122,AL-BARKA,20905.0,72.58,288.0,Basilan,150709000,150700000,6.4701228,122.1973081
123,123,HADJI MOHAMMAD AJUL,19307.0,41.02,471.0,Basilan,150710000,150700000,6.619799599999999,122.2994127
124,124,HADJI MUHTAMAD,25085.0,173.22,144.81584112689066,Basilan,150712000,150700000,6.6804777,121.5826642
125,125,ISABELA,112788.0,223.73,504.0,Basilan,99701000,99700000,6.7029445,121.969
126,126,LAMITAN,74782.0,354.45,210.98039215686276,Basilan,150702000,150700000,6.661518999999999,122.1064668
127,127,LANTAWAN,24594.0,305.84,80.0,Basilan,150703000,150700000,6.5978023,121.902418
128,128,MALUSO,40646.0,168.46,241.0,Basilan,150704000,150700000,6.5379641,121.8904136
129,129,SUMISIP,41730.0,567.6,73.5200845665962,Basilan,150705000,150700000,6.482904599999999,122.0155491
130,130,TABUAN-LASA,24188.0,64.95,372.0,Basilan,150713000,150700000,6.3352125,122.0155491
131,131,TIPO-TIPO,19163.0,49.70,386.0,Basilan,150706000,150700000,6.5371624,122.1632516
132,132,TUBURAN,20207.0,546.0,37.00915750915751,Basilan,150707000,150700000,6.6078625,122.2086579
133,133,UNGKAYA PUKAN,18441.0,96.13,192.0,Basilan,150711000,150700000,6.550444199999999,122.1064668
134,134,ABUCAY,39880.0,79.72,500.0,Bataan,30801000,30800000,14.7128091,120.4933624
135,135,BAGAC,26936.0,231.2,117.0,Bataan,30802000,30800000,14.5892275,120.4127161
136,136,BALANGA,96061.0,111.63,861.0,Bataan,30803000,30800000,14.6741293,120.5112907
137,137,DINALUPIHAN,106371.0,92.52,1150.0,Bataan,30804000,30800000,14.8780629,120.4545801
138,138,HERMOSA,65862.0,157,420.0,Bataan,30805000,30800000,14.8269095,120.4242401
139,139,LIMAY,68071.0,103.6,657.0,Bataan,30806000,30800000,14.5278776,120.5509358
140,140,MARIVELES,127536.0,153.9,829.0,Bataan,30807000,30800000,14.4929411,120.5048792
141,141,MORONG,29901.0,219.2,136.0,Bataan,30808000,30800000,14.7188504,120.3060025
142,142,ORANI,66909.0,64.9,1031.0,Bataan,30809000,30800000,14.7933477,120.4760853
143,143,ORION,56002.0,65.41,856.0,Bataan,30810000,30800000,14.5989058,120.5624474
144,144,PILAR,41823.0,37.6,1112.0,Bataan,30811000,30800000,14.6088458,120.4933624
145,145,SAMAL,35298.0,56.3,627.0,Bataan,30812000,30800000,14.7718818,120.5163949
146,146,BASCO,8579.0,49.46,173.0,Batanes,20901000,20900000,20.4634375,122.004179
147,147,ITBAYAT,2867.0,83.13,34.0,Batanes,20902000,20900000,20.7838749,121.8383269
148,148,IVANA,1327.0,16.54,80.0,Batanes,20903000,20900000,20.3780589,121.9302449
149,149,MAHATAO,1555.0,12.9,121.0,Batanes,20904000,20900000,20.4051561,121.9529992
150,150,SABTANG,1621.0,40.7,40.0,Batanes,20905000,20900000,20.3054399,121.8448745
151,151,UYUGAN,1297.0,16.28,80.0,Batanes,20906000,20900000,20.3734287,121.9529992
152,152,AGONCILLO,38059.0,49.96,762.0,Batangas,41001000,41000000,13.9879515,120.9302603
153,153,ALITAGTAG,25300.0,24.76,1022.0,Batangas,41002000,41000000,13.8721364,121.0220422
154,154,BALAYAN,90699.0,108.73,834.0,Batangas,41003000,41000000,13.9375597,120.7005044
155,155,BALETE,22661.0,25,906.0,Batangas,41004000,41000000,14.0091974,121.1080244
156,156,BATANGAS,329874.0,282.96,1166.0,Batangas,41005000,41000000,13.7564651,121.0583076
157,157,BAUAN,91297.0,53.31,1713.0,Batangas,41006000,41000000,13.7962681,120.9761599
158,158,CALACA,81859.0,114.58,714.0,Batangas,41007000,41000000,13.9508989,120.8269231
159,159,CALATAGAN,56449.0,112,504.0,Batangas,41008000,41000000,13.8645656,120.6314948
160,160,CUENCA,32783.0,58.18,563.0,Batangas,41009000,41000000,13.9041159,121.0507098
161,161,IBAAN,52970.0,68.99,768.0,Batangas,41010000,41000000,13.822048,121.1340569
162,162,LAUREL,39444.0,71.29,553.0,Batangas,41011000,41000000,14.0530249,120.907304
163,163,LEMERY,93157.0,109.8,848.0,Batangas,41012000,41000000,13.9531777,120.8843434
164,164,LIAN,52660.0,76.8,686.0,Batangas,41013000,41000000,13.9852356,120.6545022
165,165,LIPA,332386.0,209.4,1587.0,Batangas,41014000,41000000,13.941876,121.1644198
166,166,LOBO,41504.0,175.03,237.0,Batangas,41015000,41000000,13.6750074,121.2401455
167,167,MABINI,46211.0,44.47,1039.0,Batangas,41016000,41000000,13.7235514,120.907304
168,168,MALVAR,56270.0,33,1705.0,Batangas,41017000,41000000,14.0432759,121.1587269
169,169,MATAASNAKAHOY,29187.0,22.1,1321.0,Batangas,41018000,41000000,13.9799515,121.0965637
170,170,NASUGBU,134113.0,278.51,482.0,Batangas,41019000,41000000,14.0940383,120.6890055
171,171,PADRE GARCIA,48302.0,41.51,1164.0,Batangas,41020000,41000000,13.8776626,121.244445
172,172,ROSARIO,116764.0,226.88,515.0,Batangas,41021000,41000000,13.8162016,121.2740813
173,173,SAN JOSE,76971.0,53.29,1444.0,Batangas,41022000,41000000,13.8830561,121.0908329
174,174,SAN JUAN,108585.0,273.4,397.0,Batangas,41023000,41000000,13.7504439,121.3770336
175,175,SAN LUIS,33149.0,42.56,779.0,Batangas,41024000,41000000,13.8406018,120.9532123
176,176,SAN NICOLAS,22623.0,14.37,1574.0,Batangas,41025000,41000000,13.9652424,120.9818962
177,177,SAN PASCUAL,65424.0,50.7,1290.0,Batangas,41026000,41000000,13.8104423,121.0220422
178,178,SANTA TERESITA,21127.0,16.3,1296.0,Batangas,41027000,41000000,13.8742115,120.9704234
179,179,SANTO TOMAS,179844.0,95.41,1885.0,Batangas,41028000,41000000,14.1262406,121.1382576
180,180,TAAL,56327.0,29.76,1893.0,Batangas,41029000,41000000,13.8893119,120.9359987
181,181,TALISAY,45301.0,28.2,1606.0,Batangas,41030000,41000000,14.0487409,121.0105733
182,182,TANAUAN,173366.0,107.16,1618.0,Batangas,41031000,41000000,14.0835445,121.1476147
183,183,TAYSAN,38007.0,93.62,406.0,Batangas,41032000,41000000,13.7610819,121.2282958
184,184,TINGLOY,17919.0,33.07,542.0,Batangas,41033000,41000000,13.6605663,120.8716962
185,185,TUY,43743.0,94.65,462.0,Batangas,41034000,41000000,14.0220752,120.7283538
186,186,ATOK,19668.0,214.99,91.0,Benguet,141101000,141100000,16.597449,120.6890055
187,187,BAGUIO,345366.0,57.51,5541.0,Benguet,141102000,141100000,16.4023332,120.5960071
188,188,BAKUN,15357.0,286.91,54.0,Benguet,141103000,141100000,16.8079575,120.6890055
189,189,BOKOD,13756.0,274.96,50.0,Benguet,141104000,141100000,16.4564063,120.7809676
190,190,BUGUIAS,43627.0,175.88,248.0,Benguet,141105000,141100000,16.7491571,120.8368171
191,191,ITOGON,59820.0,449.73,133.0,Benguet,141106000,141100000,16.3451812,120.6890055
192,192,KABAYAN,15260.0,242.69,63.0,Benguet,141107000,141100000,16.6170249,120.8269231
193,193,KAPANGAN,19361.0,164.39,118.0,Benguet,141108000,141100000,16.6123793,120.5969758
194,194,KIBUNGAN,17292.0,254.86,68.0,Benguet,141109000,141100000,16.6816218,120.6890055
195,195,LA TRINIDAD,129133.0,70.04,1844.0,Benguet,141110000,141100000,16.4774284,120.5854674
196,196,MANKAYAN,35953.0,130.48,276.0,Benguet,141111000,141100000,16.8770346,120.7809676
197,197,SABLAN,11457.0,105.63,108.0,Benguet,141112000,141100000,16.4885206,120.5163949
198,198,TUBA,47648.0,295.97,161.0,Benguet,141113000,141100000,16.3005173,120.5739579
199,199,TUBLAY,17892.0,102.55,174.0,Benguet,141114000,141100000,16.5120921,120.6314948
200,200,ALMERIA,16951.0,57.46,295.0,Biliran,87801000,87800000,11.6395872,124.4087307
201,201,BILIRAN,16882.0,70.3,240.0,Biliran,87802000,87800000,11.5106303,124.4974405
202,202,CABUCGAYAN,20788.0,54.19,384.0,Biliran,87803000,87800000,11.5016901,124.5639142
203,203,CAIBIRAN,22524.0,83.55,270.0,Biliran,87804000,87800000,11.560095,124.5639142
204,204,CULABA,12325.0,73.42,168.0,Biliran,87805000,87800000,11.6440591,124.519604
205,205,KAWAYAN,20291.0,61.02,333.0,Biliran,87806000,87800000,11.6786399,124.4087307
206,206,MARIPIPI,7159.0,27.83,257.0,Biliran,87807000,87800000,11.7884869,124.3199316
207,207,NAVAL,54692.0,108.24,505.0,Biliran,87808000,87800000,11.5628579,124.3965285
208,208,ALBURQUERQUE,10540.0,26.98,391.0,Bohol,71201000,71200000,9.632098899999999,123.9537069
209,209,ALICIA,23517.0,114.5,205.0,Bohol,71202000,71200000,9.8798859,124.4309165
210,210,ANDA,16462.0,61.89,266.0,Bohol,71203000,71200000,9.7692424,124.5639142
211,211,ANTEQUERA,14425.0,118.6,122.0,Bohol,71204000,71200000,9.7740668,123.920219
212,212,BACLAYON,20591.0,34.43,598.0,Bohol,71205000,71200000,9.632368699999999,123.919245
213,213,BALILIHAN,17903.0,127.27,141.0,Bohol,71206000,71200000,9.7670437,123.997295
214,214,BATUAN,12767.0,48.79,262.0,Bohol,71207000,71200000,9.800987,124.1198102
215,215,BIEN UNIDO,27115.0,27.39,990.0,Bohol,71248000,71200000,10.1210626,124.37325
216,216,BILAR,17590.0,129.71,136.0,Bohol,71208000,71200000,9.7187682,124.0864133
217,217,BUENAVISTA,27261.0,96,284.0,Bohol,71209000,71200000,10.053061,124.1754442
218,218,CALAPE,30863.0,75.36,410.0,Bohol,71210000,71200000,9.8862984,123.8746152
219,219,CANDIJAY,29475.0,103.26,285.0,Bohol,71211000,71200000,9.825796700000001,124.4863567
220,220,CARMEN,46306.0,239.45,193.0,Bohol,71212000,71200000,9.8398971,124.1976882
221,221,CATIGBIAN,22675.0,113.33,200.0,Bohol,71213000,71200000,9.8493849,124.0307246
222,222,CLARIN,20301.0,52.12,390.0,Bohol,71214000,71200000,9.9567237,124.0577994
223,223,CORELLA,8479.0,37.22,228.0,Bohol,71215000,71200000,9.687230999999999,123.9415518
224,224,CORTES,16954.0,27.32,621.0,Bohol,71216000,71200000,9.7113414,123.8969328
225,225,DAGOHOY,19158.0,77.59,247.0,Bohol,71217000,71200000,9.899634299999999,124.2844697
226,226,DANAO,17890.0,162.76,110.0,Bohol,71218000,71200000,9.947418500000001,124.2202732
227,227,DAUIS,45663.0,43.33,1054.0,Bohol,71219000,71200000,9.6074028,123.8233901
228,228,DIMIAO,14364.0,135.75,106.0,Bohol,71220000,71200000,9.664786699999999,124.1420679
229,229,DUERO,17876.0,97.3,184.0,Bohol,71221000,71200000,9.7324527,124.3865392
230,230,GARCIA HERNANDEZ,24194.0,127.5,190.0,Bohol,71222000,71200000,9.668837199999999,124.2754988
231,231,GETAFE,30955.0,120.5,257.0,Bohol,71226000,71200000,10.1298013,124.1754442
232,232,GUINDULMAN,32408.0,179.17,181.0,Bohol,71223000,71200000,9.779442399999999,124.4752715
233,233,INABANGA,45880.0,125.63,365.0,Bohol,71224000,71200000,10.0314085,124.0674291
234,234,JAGNA,33892.0,168.49,201.0,Bohol,71225000,71200000,9.6504905,124.3653473
235,235,LILA,12257.0,40.5,303.0,Bohol,71227000,71200000,9.6125422,124.097547
236,236,LOAY,16691.0,48.24,346.0,Bohol,71228000,71200000,9.5995837,124.0139789
237,237,LOBOC,15993.0,57.65,277.0,Bohol,71229000,71200000,9.6581656,124.0307246
238,238,LOON,43034.0,113.36,380.0,Bohol,71230000,71200000,9.7986144,123.7936814
239,239,MABINI,27171.0,104.57,260.0,Bohol,71231000,71200000,9.8969072,124.5306837
240,240,MARIBOJOC,20688.0,49.35,419.0,Bohol,71232000,71200000,9.754624399999999,123.8522923
241,241,PANGLAO,33553.0,47.79,702.0,Bohol,71233000,71200000,9.573142899999999,123.7629465
242,242,PILAR,27256.0,120.39,226.0,Bohol,71234000,71200000,9.8411457,124.3532417
243,243,PRESIDENT CARLOS P. GARCIA,23356.0,54.82,426.0,Bohol,71235000,71200000,10.1099354,124.5860608
244,244,SAGBAYAN,22339.0,69.61,321.0,Bohol,71236000,71200000,9.899196,124.097547
245,245,SAN ISIDRO,8744.0,60.04,146.0,Bohol,71237000,71200000,9.8569889,123.9638531
246,246,SAN MIGUEL,24135.0,123.29,196.0,Bohol,71238000,71200000,9.9991848,124.3088255
247,247,SEVILLA,10661.0,116.75,91.0,Bohol,71239000,71200000,9.6963683,124.0307246
248,248,SIERRA BULLONES,24745.0,198.87,124.0,Bohol,71240000,71200000,9.7699125,124.3088255
249,249,SIKATUNA,6726.0,38.22,176.0,Bohol,71241000,71200000,9.6822494,123.986149
250,250,TAGBILARAN,105051.0,36.5,2878.0,Bohol,71242000,71200000,9.672948,123.8730022
251,251,TALIBON,66969.0,140.46,477.0,Bohol,71243000,71200000,10.1576954,124.2643871
252,252,TRINIDAD,31956.0,195.3,164.0,Bohol,71244000,71200000,10.0622792,124.3421397
253,253,TUBIGON,45893.0,81.87,561.0,Bohol,71245000,71200000,9.9144971,123.9638531
254,254,UBAY,73712.0,335.06,220.0,Bohol,71246000,71200000,9.9932029,124.4483683
255,255,VALENCIA,27126.0,116.67,233.0,Bohol,71247000,71200000,9.611306899999999,124.211808
256,256,BAUNGON,34336.0,328.34,105.0,Bukidnon,101301000,101300000,8.2633635,124.6635297
257,257,CABANGLASAN,33997.0,243.3,140.0,Bukidnon,101322000,101300000,8.0872584,125.3246769
258,258,DAMULOG,30302.0,244.19,124.0,Bukidnon,101302000,101300000,7.4602033,124.9727096
259,259,DANGCAGAN,23723.0,422.69,56.0,Bukidnon,101303000,101300000,7.6025458,125.0167866
260,260,DON CARLOS,66959.0,213.72,313.0,Bukidnon,101304000,101300000,7.6880909,124.8844867
261,261,IMPASUGONG,47859.0,1051.17,46.0,Bukidnon,101305000,101300000,8.3885423,125.0828588
262,262,KADINGILAN,33778.0,171.94,196.0,Bukidnon,101306000,101300000,7.504739900000001,124.8844867
263,263,KALILANGAN,41601.0,251.43,165.0,Bukidnon,101307000,101300000,7.773933899999999,124.7519807
264,264,KIBAWE,39612.0,304.13,130.0,Bukidnon,101308000,101300000,7.4887828,125.0608405
265,265,KITAOTAO,50260.0,788.78,64.0,Bukidnon,101309000,101300000,7.594443399999999,125.1048713
266,266,LANTAPAN,61776.0,328.35,188.0,Bukidnon,101310000,101300000,8.0479665,124.9727096
267,267,LIBONA,43969.0,374.37,117.0,Bukidnon,101311000,101300000,8.3806797,124.7041462
268,268,MALAYBALAY,174625.0,969.19,180.0,Bukidnon,101312000,101300000,8.1478579,125.1320927
269,269,MALITBOG,24453.0,581.85,42.0,Bukidnon,101313000,101300000,8.5297806,124.9727096
270,270,MANOLO FORTICH,100210.0,413.6,242.0,Bukidnon,101314000,101300000,8.390019299999999,124.8844867
271,271,MARAMAG,102089.0,447.26,228.0,Bukidnon,101315000,101300000,7.790099499999999,124.9727096
272,272,PANGANTUCAN,53126.0,461.72,115.0,Bukidnon,101316000,101300000,7.8393401,124.8403408
273,273,QUEZON,104116.0,626.86,166.0,Bukidnon,101317000,101300000,7.716454199999999,125.1708741
274,274,SAN FERNANDO,56138.0,705.06,80.0,Bukidnon,101318000,101300000,7.846369399999999,125.3466253
275,275,SUMILAO,27660.0,196.95,140.0,Bukidnon,101319000,101300000,8.345058,124.9767237
276,276,TALAKAG,71644.0,786.4,91.0,Bukidnon,101320000,101300000,8.019781499999999,124.7899184
277,277,VALENCIA,192993.0,587.29,329.0,Bukidnon,101321000,101300000,7.8631903,125.1708741
278,278,ANGAT,59237.0,74,801.0,Bulacan,31401000,31400000,14.9380065,121.0208845
279,279,BALAGTAS,73929.0,28.66,2580.0,Bulacan,31402000,31400000,14.8320446,120.9051758
280,280,BALIUAG,149954.0,45.05,3329.0,Bulacan,31403000,31400000,14.9742417,120.8945181
281,281,BOCAUE,119675.0,31.87,3755.0,Bulacan,31404000,31400000,14.8072101,120.9395039
282,282,BULAKAN,76565.0,72.9,1050.0,Bulacan,31405000,31400000,14.7942735,120.8799008
283,283,BUSTOS,67039.0,69.99,958.0,Bulacan,31406000,31400000,14.9379359,120.927572
284,284,CALUMPIT,108757.0,56.25,1933.0,Bulacan,31407000,31400000,14.9081084,120.7668562
285,285,DOÑA REMEDIOS TRINIDAD,22663.0,932.96,24.0,Bulacan,31424000,31400000,15.1142696,121.2168466
286,286,GUIGUINTO,99730.0,27.5,3627.0,Bulacan,31408000,31400000,14.8282987,120.8843023
287,287,HAGONOY,129807.0,103.1,1259.0,Bulacan,31409000,31400000,14.791933,120.734995
288,288,MALOLOS,252074.0,67.25,3748.0,Bulacan,31410000,31400000,14.8527393,120.8160376
289,289,MARILAO,221965.0,33.74,6579.0,Bulacan,31411000,31400000,14.7717576,120.9587298
290,290,MEYCAUAYAN,209083.0,32.1,6513.0,Bulacan,31412000,31400000,14.7498856,120.9739288
291,291,NORZAGARAY,111348.0,309.77,359.0,Bulacan,31413000,31400000,14.8744717,121.1446143
292,292,OBANDO,59197.0,52.1,1136.0,Bulacan,31414000,31400000,14.7262727,120.9253285
293,293,PANDI,89075.0,31.2,2855.0,Bulacan,31415000,31400000,14.8756999,120.9592956
294,294,PAOMBONG,53294.0,46.34,1150.0,Bulacan,31416000,31400000,14.8102948,120.7867129
295,295,PLARIDEL,107805.0,32.44,3323.0,Bulacan,31417000,31400000,14.8767548,120.8936002
296,296,PULILAN,97323.0,39.89,2440.0,Bulacan,31418000,31400000,14.9124488,120.8457963
297,297,SAN ILDEFONSO,104471.0,128.71,812.0,Bulacan,31419000,31400000,15.0417552,121.0105733
298,298,SAN JOSE DEL MONTE,574089.0,105.53,5440.0,Bulacan,31420000,31400000,14.8142626,121.072532
299,299,SAN MIGUEL,153882.0,231.4,665.0,Bulacan,31421000,31400000,15.166425,121.0105733
300,300,SAN RAFAEL,94655.0,152.43,621.0,Bulacan,31422000,31400000,14.998451,120.9532123
301,301,SANTA MARIA,256454.0,90.92,2821.0,Bulacan,31423000,31400000,14.847608,120.9808582
302,302,ABULUG,32497.0,162.6,200.0,Cagayan,21501000,21500000,18.3972783,121.43419
303,303,ALCALA,38883.0,187.2,208.0,Cagayan,21502000,21500000,17.9049718,121.6511258
304,304,ALLACAPAN,33571.0,306.8,109.0,Cagayan,21503000,21500000,18.2161729,121.5598345
305,305,AMULUNG,47860.0,242.2,198.0,Cagayan,21504000,21500000,17.8464893,121.7423434
306,306,APARRI,65649.0,286.64,229.0,Cagayan,21505000,21500000,18.3550839,121.6420059
307,307,BAGGAO,82782.0,920.6,90.0,Cagayan,21506000,21500000,17.8814458,121.8725374
308,308,BALLESTEROS,34299.0,120,286.0,Cagayan,21507000,21500000,18.3509887,121.5141615
309,309,BUGUEY,30175.0,164.5,183.0,Cagayan,21508000,21500000,18.2585476,121.7879244
310,310,CALAYAN,16702.0,494.53,34.0,Cagayan,21509000,21500000,19.2618857,121.4770988
311,311,CAMALANIUGAN,24923.0,76.5,326.0,Cagayan,21510000,21500000,18.2753372,121.6967438
312,312,CLAVERIA,29921.0,194.8,154.0,Cagayan,21511000,21500000,18.6014185,121.0911646
313,313,ENRILE,35834.0,184.5,194.0,Cagayan,21512000,21500000,17.5688589,121.6511258
314,314,GATTARAN,56661.0,707.5,80.0,Cagayan,21513000,21500000,18.0736485,121.8790306
315,315,GONZAGA,38892.0,567.43,69.0,Cagayan,21514000,21500000,18.2414828,122.1064668
316,316,IGUIG,27862.0,108.1,258.0,Cagayan,21515000,21500000,17.7499497,121.7537404
317,317,LAL-LO,44506.0,702.8,63.0,Cagayan,21516000,21500000,18.1576715,121.8790306
318,318,LASAM,39135.0,213.7,183.0,Cagayan,21517000,21500000,18.047691,121.5598345
319,319,PAMPLONA,23596.0,173.3,136.0,Cagayan,21518000,21500000,18.4266461,121.3312882
320,320,PEÑABLANCA,48584.0,1193.2,41.0,Cagayan,21519000,21500000,17.6626811,121.947311
321,321,PIAT,23597.0,139.6,169.0,Cagayan,21520000,21500000,17.7531544,121.5598345
322,322,RIZAL,17994.0,124.4,145.0,Cagayan,21521000,21500000,17.8277893,121.3770336
323,323,SANCHEZ-MIRA,24541.0,198.8,123.0,Cagayan,21522000,21500000,18.5362751,121.193945
324,324,SANTA ANA,32906.0,441.3,75.0,Cagayan,21523000,21500000,18.4816082,122.1556749
325,325,SANTA PRAXEDES,4154.0,109.97,38.0,Cagayan,21524000,21500000,18.5187555,120.9991032
326,326,SANTA TERESITA,19038.0,166.98,114.0,Cagayan,21525000,21500000,18.2459143,121.9131761
327,327,SANTO NIÑO,27219.0,512.9,53.0,Cagayan,21526000,21500000,17.9126693,121.4913182
328,328,SOLANA,82502.0,234.6,352.0,Cagayan,21527000,21500000,17.6528363,121.6511258
329,329,TUAO,61535.0,215.5,286.0,Cagayan,21528000,21500000,17.699209,121.5038763
330,330,TUGUEGARAO,153502.0,144.8,1060.0,Cagayan,21529000,21500000,17.6131813,121.7270206
331,331,BASUD,41017.0,260.28,158.0,Camarines Norte,51601000,51600000,14.006633,122.9663018
332,332,CAPALONGA,32215.0,290,111.0,Camarines Norte,51602000,51600000,14.2855935,122.4693688
333,333,DAET,104799.0,46,2278.0,Camarines Norte,51603000,51600000,14.099578,122.9550349
334,334,JOSE PANGANIBAN,59639.0,214.44,278.0,Camarines Norte,51605000,51600000,14.2833889,122.6979815
335,335,LABO,101082.0,589.36,172.0,Camarines Norte,51606000,51600000,14.1527822,122.6729515
336,336,MERCEDES,50841.0,173.69,293.0,Camarines Norte,51607000,51600000,14.0215425,123.0676469
337,337,PARACALE,59149.0,197.9,299.0,Camarines Norte,51608000,51600000,14.2372141,122.7858791
338,338,SAN LORENZO RUIZ,14063.0,119.37,118.0,Camarines Norte,51604000,51600000,14.1189369,122.870999
339,339,SAN VICENTE,10396.0,57.49,181.0,Camarines Norte,51609000,51600000,14.1,122.866667
340,340,SANTA ELENA,40786.0,199.35,205.0,Camarines Norte,51610000,51600000,14.217726,122.3787597
341,341,TALISAY,25841.0,30.76,840.0,Camarines Norte,51611000,51600000,14.1478159,122.9381321
342,342,VINZONS,43485.0,141.43,307.0,Camarines Norte,51612000,51600000,14.2114459,122.8874067
343,343,BAAO,58849.0,106.63,552.0,Camarines Sur,51701000,51700000,13.5015601,123.3710571
344,344,BALATAN,30922.0,93.09,332.0,Camarines Sur,51702000,51700000,13.3490803,123.2475594
345,345,BATO,52137.0,107.12,487.0,Camarines Sur,51703000,51700000,13.3190722,123.3149413
346,346,BOMBON,16512.0,28.73,575.0,Camarines Sur,51704000,51700000,13.6819875,123.2082318
347,347,BUHI,77143.0,246.65,313.0,Camarines Sur,51705000,51700000,13.4412707,123.5056016
348,348,BULA,69430.0,167.64,414.0,Camarines Sur,51706000,51700000,13.4689356,123.277158
349,349,CABUSAO,18397.0,46.8,393.0,Camarines Sur,51707000,51700000,13.7350513,123.0901539
350,350,CALABANGA,83033.0,163.8,507.0,Camarines Sur,51708000,51700000,13.7163289,123.2812562
351,351,CAMALIGAN,24109.0,4.68,5151.0,Camarines Sur,51709000,51700000,13.6282537,123.1632665
352,352,CANAMAN,34210.0,43.27,791.0,Camarines Sur,51710000,51700000,13.6475835,123.1351527
353,353,CARAMOAN,47605.0,276,172.0,Camarines Sur,51711000,51700000,13.8076519,123.8500045
354,354,DEL GALLEGO,25397.0,208.31,122.0,Camarines Sur,51712000,51700000,13.9258748,122.695547
355,355,GAINZA,11262.0,14.75,764.0,Camarines Sur,51713000,51700000,13.6166671,123.15
356,356,GARCHITORENA,27010.0,243.8,111.0,Camarines Sur,51714000,51700000,13.8628124,123.6399562
357,357,GOA,63308.0,206.18,307.0,Camarines Sur,51715000,51700000,13.7361891,123.4159263
358,358,IRIGA,111757.0,137.35,814.0,Camarines Sur,51716000,51700000,13.4205369,123.4180473
359,359,LAGONOY,55465.0,377.9,147.0,Camarines Sur,51717000,51700000,13.8668769,123.4831906
360,360,LIBMANAN,108716.0,342.82,317.0,Camarines Sur,51718000,51700000,13.6828973,122.9663018
361,361,LUPI,32167.0,199.12,162.0,Camarines Sur,51719000,51700000,13.8582177,122.8761309
362,362,MAGARAO,25694.0,44.97,571.0,Camarines Sur,51720000,51700000,13.6685793,123.1632665
363,363,MILAOR,31150.0,33.64,926.0,Camarines Sur,51721000,51700000,13.5963401,123.1745097
364,364,MINALABAC,52390.0,126.1,415.0,Camarines Sur,51722000,51700000,13.5283608,123.1913722
365,365,NABUA,83874.0,96.2,872.0,Camarines Sur,51723000,51700000,13.3960698,123.3373916
366,366,NAGA,196003.0,84.48,2320.0,Camarines Sur,51724000,51700000,13.6217753,123.1948238
367,367,OCAMPO,45934.0,118.33,388.0,Camarines Sur,51725000,51700000,13.5819842,123.3710571
368,368,PAMPLONA,36390.0,80.6,451.0,Camarines Sur,51726000,51700000,13.5842564,123.0594772
369,369,PASACAO,49035.0,149.54,328.0,Camarines Sur,51727000,51700000,13.552319,123.0314951
370,370,PILI,89545.0,126.25,709.0,Camarines Sur,51728000,51700000,13.595469,123.2812562
371,371,PRESENTACION,20996.0,143.8,146.0,Camarines Sur,51729000,51700000,13.7367365,123.7405967
372,372,RAGAY,58214.0,400.22,145.0,Camarines Sur,51730000,51700000,13.8312329,122.7858791
373,373,SAGÑAY,34546.0,154.76,223.0,Camarines Sur,51731000,51700000,13.5617176,123.5056016
374,374,SAN FERNANDO,35258.0,71.76,491.0,Camarines Sur,51732000,51700000,13.5299842,123.1126559
375,375,SAN JOSE,40623.0,43.07,943.0,Camarines Sur,51733000,51700000,13.6872362,123.5392081
376,376,SIPOCOT,64855.0,243.43,266.0,Camarines Sur,51734000,51700000,13.7628395,122.9621976
377,377,SIRUMA,17764.0,141.27,126.0,Camarines Sur,51735000,51700000,14.027433,123.2924859
378,378,TIGAON,55272.0,72.35,764.0,Camarines Sur,51736000,51700000,13.61677,123.4879403
379,379,TINAMBAC,67572.0,351.62,192.0,Camarines Sur,51737000,51700000,13.9042798,123.3710571
380,380,CATARMAN,16798.0,53.75,313.0,Camiguin,101801000,101800000,9.1698214,124.674591
381,381,GUINSILIBAN,6281.0,18.52,339.0,Camiguin,101802000,101800000,9.1160445,124.779603
382,382,MAHINOG,14038.0,32.55,431.0,Camiguin,101803000,101800000,9.160185199999999,124.7630307
383,383,MAMBAJAO,38735.0,89,435.0,Camiguin,101804000,101800000,9.2321675,124.7077665
384,384,SAGAY,12626.0,44.13,286.0,Camiguin,101805000,101800000,9.1249484,124.7409293
385,385,CUARTERO,27408.0,106.58,257.0,Capiz,61901000,61900000,11.3155974,122.740723
386,386,DAO,32496.0,88.64,367.0,Capiz,61902000,61900000,11.3889504,122.7068429
387,387,DUMALAG,29466.0,109.18,270.0,Capiz,61903000,61900000,11.3210606,122.6164409
388,388,DUMARAO,46157.0,232.56,198.0,Capiz,61904000,61900000,11.2421989,122.695547
389,389,IVISAN,29055.0,54.2,536.0,Capiz,61905000,61900000,11.5302869,122.6842498
390,390,JAMINDAN,36677.0,412.03,89.0,Capiz,61906000,61900000,11.3997976,122.3787597
391,391,MAAYON,38416.0,142.32,270.0,Capiz,61907000,61900000,11.3438775,122.831015
392,392,MAMBUSAO,39644.0,136.91,290.0,Capiz,61908000,61900000,11.4425704,122.593828
393,393,PANAY,46114.0,116.37,396.0,Capiz,61909000,61900000,11.5414755,122.831015
394,394,PANITAN,40289.0,89.88,448.0,Capiz,61910000,61900000,11.4595785,122.7745919
395,395,PILAR,45287.0,77.99,581.0,Capiz,61911000,61900000,11.4791255,123.0113568
396,396,PONTEVEDRA,46428.0,130.9,355.0,Capiz,61912000,61900000,11.417207,122.8761309
397,397,PRESIDENT ROXAS,29676.0,77.88,381.0,Capiz,61913000,61900000,11.4058843,122.9663018
398,398,ROXAS,167003.0,95.07,1757.0,Capiz,61914000,61900000,11.5528816,122.740723
399,399,SAPIAN,25821.0,105.24,245.0,Capiz,61915000,61900000,11.5019953,122.593828
400,400,SIGMA,30134.0,101.71,296.0,Capiz,61916000,61900000,11.4397974,122.695547
401,401,TAPAZ,51313.0,517.18,99.0,Capiz,61917000,61900000,11.2979492,122.4014193
402,402,BAGAMANOC,11551.0,80.74,143.0,Catanduanes,52001000,52000000,13.94037,124.2887451
403,403,BARAS,12848.0,109.5,117.0,Catanduanes,52002000,52000000,13.6996667,124.3643423
404,404,BATO,21279.0,48.62,438.0,Catanduanes,52003000,52000000,13.6068651,124.3199316
405,405,CARAMORAN,30056.0,263.74,114.0,Catanduanes,52004000,52000000,13.819335,124.1754442
406,406,GIGMOTO,8368.0,181.82,46.0,Catanduanes,52005000,52000000,13.7912671,124.3532417
407,407,PANDAN,20516.0,119.9,171.0,Catanduanes,52006000,52000000,14.0382044,124.1623009
408,408,PANGANIBAN,9287.0,79.96,116.0,Catanduanes,52007000,52000000,13.8935587,124.2754988
409,409,SAN ANDRES,36779.0,167.31,220.0,Catanduanes,52008000,52000000,13.6113216,124.0768102
410,410,SAN MIGUEL,15006.0,129.94,115.0,Catanduanes,52009000,52000000,13.6854096,124.2643871
411,411,VIGA,21624.0,158.23,137.0,Catanduanes,52010000,52000000,13.8465045,124.3199316
412,412,VIRAC,73650.0,152.4,483.0,Catanduanes,52011000,52000000,13.5848627,124.2065844
413,413,ALFONSO,51839.0,66.58,779.0,Cavite,42101000,42100000,14.1214038,120.8613785
414,414,AMADEO,37649.0,36.92,1020.0,Cavite,42102000,42100000,14.1692753,120.9222119
415,415,BACOOR,600609.0,46.17,13009.0,Cavite,42103000,42100000,14.4129931,120.9736786
416,416,CARMONA,97557.0,30.92,3155.0,Cavite,42104000,42100000,14.3108186,121.0409961
417,417,CAVITE,102806.0,10.89,9440.0,Cavite,42105000,42100000,14.4791297,120.8969634
418,418,DASMARIÑAS,659019.0,90.13,7312.0,Cavite,42106000,42100000,14.2990183,120.9589699
419,419,GENERAL EMILIO AGUINALDO,22220.0,9.4,2364.0,Cavite,42107000,42100000,14.1931169,120.792458
420,420,GENERAL MARIANO ALVAREZ,155143.0,11.4,13609.0,Cavite,42123000,42100000,14.3051421,121.0127625
421,421,GENERAL TRIAS,314303.0,81.46,3858.0,Cavite,42108000,42100000,14.3214094,120.907304
422,422,IMUS,403785.0,171.66,2352.0,Cavite,42109000,42100000,14.4064221,120.9405057
423,423,INDANG,65599.0,74.9,876.0,Cavite,42110000,42100000,14.1920384,120.8728615
424,424,KAWIT,83466.0,22.86,3651.0,Cavite,42111000,42100000,14.440992,120.9037639
425,425,MAGALLANES,22727.0,73.07,311.0,Cavite,42112000,42100000,14.158284,120.7464897
426,426,MARAGONDON,37720.0,164.61,229.0,Cavite,42113000,42100000,14.2529507,120.734995
427,427,MENDEZ,31529.0,43.27,729.0,Cavite,42114000,42100000,14.1311947,120.9015642
428,428,NAIC,111454.0,76.24,1462.0,Cavite,42115000,42100000,14.2964865,120.792458
429,429,NOVELETA,45846.0,16.43,2790.0,Cavite,42116000,42100000,14.4278929,120.8801182
430,430,ROSARIO,110706.0,38.16,2901.0,Cavite,42117000,42100000,14.4139543,120.857155
431,431,SILANG,248085.0,209.43,1185.0,Cavite,42118000,42100000,14.214175,120.9687359
432,432,TAGAYTAY,71181.0,65,1095.0,Cavite,42119000,42100000,14.115286,120.9621165
433,433,TANZA,226188.0,95.59,2366.0,Cavite,42120000,42100000,14.3429329,120.8503144
434,434,TERNATE,23157.0,59.93,386.0,Cavite,42121000,42100000,14.2714485,120.6775054
435,435,TRECE MARTIRES,155713.0,39.1,3982.0,Cavite,42122000,42100000,14.2822215,120.868383
436,436,ALCANTARA,15160.0,35.2,431.0,Cebu,72201000,72200000,9.967397199999999,123.4551696
437,437,ALCOY,16979.0,61.63,275.0,Cebu,72202000,72200000,9.7117325,123.4607744
438,438,ALEGRIA,23300.0,89.49,260.0,Cebu,72203000,72200000,9.760054799999999,123.3710571
439,439,ALOGUINSAN,32100.0,61.92,518.0,Cebu,72204000,72200000,10.1917127,123.5616058
440,440,ARGAO,72366.0,191.5,378.0,Cebu,72205000,72200000,9.9325808,123.5504076
441,441,ASTURIAS,47857.0,190.45,251.0,Cebu,72206000,72200000,10.5966862,123.8187977
442,442,BADIAN,37912.0,110.07,344.0,Cebu,72207000,72200000,9.8320892,123.4159263
443,443,BALAMBAN,87177.0,333.56,261.0,Cebu,72208000,72200000,10.4858484,123.7741195
444,444,BANTAYAN,79084.0,81.68,968.0,Cebu,72209000,72200000,11.1695121,123.7265836
445,445,BARILI,73862.0,122.21,604.0,Cebu,72210000,72200000,10.1219023,123.5393105
446,446,BOGO,78120.0,103.52,755.0,Cebu,72211000,72200000,11.0128292,123.986149
447,447,BOLJOON,16344.0,117,140.0,Cebu,72212000,72200000,9.6457398,123.4495644
448,448,BORBON,35526.0,120.94,294.0,Cebu,72213000,72200000,10.8462735,123.997295
449,449,CARCAR,119664.0,116.78,1025.0,Cebu,72214000,72200000,10.1151105,123.6399562
450,450,CARMEN,51325.0,84.78,605.0,Cebu,72215000,72200000,10.5937044,124.0186256
451,451,CATMON,30471.0,109.64,278.0,Cebu,72216000,72200000,10.7208936,124.0121178
452,452,CEBU,922611.0,315,2929.0,Cebu,72217000,72200000,10.3156992,123.8854366
453,453,COMPOSTELA,47898.0,53.9,889.0,Cebu,72218000,72200000,10.4659,123.9805756
454,454,CONSOLACION,131528.0,37.03,894.0,Cebu,72219000,72200000,10.4367842,123.9415518
455,455,CORDOVA,59712.0,17.15,3482.0,Cebu,72220000,72200000,10.2438638,123.9415518
456,456,DAANBANTAYAN,84430.0,92.27,915.0,Cebu,72221000,72200000,11.2464955,124.0173086
457,457,DALAGUETE,67497.0,154.96,436.0,Cebu,72222000,72200000,9.783662,123.5056016
458,458,DANAO,136471.0,107.3,1272.0,Cebu,72223000,72200000,10.5417498,123.9527031
459,459,DUMANJUG,51210.0,85.53,599.0,Cebu,72224000,72200000,10.0281876,123.4719832
460,460,GINATILAN,15919.0,70.1,227.0,Cebu,72225000,72200000,9.5786947,123.3598366
461,461,LAPU-LAPU,408112.0,58.1,7024.0,Cebu,72226000,72200000,10.2661822,123.997295
462,462,LILOAN,118753.0,45.92,2586.0,Cebu,72227000,72200000,10.412129,123.986149
463,463,MADRIDEJOS,36429.0,23.95,1521.0,Cebu,72228000,72200000,11.2641918,123.7350084
464,464,MALABUYOC,19373.0,69.27,280.0,Cebu,72229000,72200000,9.6446914,123.3710571
465,465,MANDAUE,362654.0,25.18,14402.0,Cebu,72230000,72200000,10.3321417,123.9357136
466,466,MEDELLIN,55332.0,73.19,756.0,Cebu,72231000,72200000,11.1491043,123.986149
467,467,MINGLANILLA,132135.0,65.6,2014.0,Cebu,72232000,72200000,10.2433023,123.7889922
468,468,MOALBOAL,31130.0,124.86,249.0,Cebu,72233000,72200000,9.955660900000002,123.4007598
469,469,NAGA,115750.0,101.97,1135.0,Cebu,72234000,72200000,10.2084984,123.7572942
470,470,OSLOB,27893.0,134.75,207.0,Cebu,72235000,72200000,9.5630395,123.4159263
471,471,PILAR,11308.0,32.42,349.0,Cebu,72236000,72200000,10.7517764,124.519604
472,472,PINAMUNGAJAN,65955.0,109.16,604.0,Cebu,72237000,72200000,10.2638281,123.6063855
473,473,PORO,25212.0,63.59,396.0,Cebu,72238000,72200000,10.7017335,124.4162072
474,474,RONDA,20360.0,57.1,357.0,Cebu,72239000,72200000,9.9921376,123.4495644
475,475,SAMBOAN,20884.0,45.16,462.0,Cebu,72240000,72200000,9.5043588,123.3373916
476,476,SAN FERNANDO,66280.0,69.39,955.0,Cebu,72241000,72200000,10.1871162,123.6846987
477,477,SAN FRANCISCO,55180.0,106.93,516.0,Cebu,72242000,72200000,10.6471856,124.3532417
478,478,SAN REMIGIO,57557.0,95.27,604.0,Cebu,72243000,72200000,10.960102,123.9415518
479,479,SANTA FE,28603.0,28.05,1020.0,Cebu,72244000,72200000,11.1691325,123.7908763
480,480,SANTANDER,17857.0,29.53,605.0,Cebu,72245000,72200000,9.446843999999999,123.3373916
481,481,SIBONGA,48186.0,133.45,361.0,Cebu,72246000,72200000,10.0431063,123.5951925
482,482,SOGOD,35108.0,119.23,294.0,Cebu,72247000,72200000,10.7631166,123.9638531
483,483,TABOGON,39013.0,101.35,385.0,Cebu,72248000,72200000,10.9239469,123.997295
484,484,TABUELAN,25630.0,141.13,182.0,Cebu,72249000,72200000,10.8573793,123.9080896
485,485,TALISAY,227645.0,39.87,5710.0,Cebu,72250000,72200000,10.2524493,123.8392335
486,486,TOLEDO,170335.0,216.28,788.0,Cebu,72251000,72200000,10.3870103,123.6502788
487,487,TUBURAN,63866.0,546.0,37.00915750915751,Cebu,72252000,72200000,10.7075816,123.8634544
488,488,TUDELA,11296.0,33.02,342.0,Cebu,72253000,72200000,10.6609238,124.4752715
489,489,ALAMADA,64596.0,787.5,82.0,Cotabato,124701000,124700000,7.552935000000001,124.5528387
490,490,ALEOSAN,39405.0,225.44,175.0,Cotabato,124717000,124700000,7.1889378,124.6303372
491,491,ANTIPAS,25304.0,552.5,46.0,Cotabato,124715000,124700000,7.269983900000001,125.0608405
492,492,ARAKAN,48228.0,693.22,70.0,Cotabato,124718000,124700000,7.353766800000001,125.1474451
493,493,BANISILAN,43677.0,577.22,76.0,Cotabato,124716000,124700000,7.537013000000001,124.7298765
494,494,CARMEN,95921.0,1110.43,86.0,Cotabato,124702000,124700000,7.382613499999999,124.8182593
495,495,KABACAN,89161.0,448.09,199.0,Cotabato,124703000,124700000,7.107192299999999,124.8403408
496,496,KIDAPAWAN,140195.0,358.47,391.0,Cotabato,124704000,124700000,7.010606999999999,125.0911341
497,497,LIBUNGAN,48768.0,172.5,283.0,Cotabato,124705000,124700000,7.316374300000001,124.5306837
498,498,M'LANG,95070.0,312.13,305.0,Cotabato,124710000,124700000,6.938217,124.906551
499,499,MAGPET,49201.0,755.36,65.0,Cotabato,124706000,124700000,7.1331999,125.1708741
500,500,MAKILALA,83851.0,343.57,244.0,Cotabato,124707000,124700000,6.9234317,125.0828588
501,501,MATALAM,79361.0,476,17.0,Cotabato,124708000,124700000,7.2087534,124.9286096
502,502,MIDSAYAP,151684.0,290.42,522.0,Cotabato,124709000,124700000,7.133551,124.5306837
503,503,PIGCAWAYAN,66796.0,340.11,196.0,Cotabato,124711000,124700000,7.279219899999998,124.4309165
504,504,PIKIT,154441.0,604.61,255.0,Cotabato,124712000,124700000,7.0531435,124.6192702
505,505,PRESIDENT ROXAS,47575.0,618.25,77.0,Cotabato,124713000,124700000,7.1609003,125.0608405
506,506,TULUNAN,56513.0,343.08,165.0,Cotabato,124714000,124700000,6.786219,124.994751
507,507,COMPOSTELA,87474.0,287,305.0,Compostela Valley,118201000,118200000,7.6659683,126.084695
508,508,LAAK,73874.0,768,96.0,Compostela Valley,118202000,118200000,7.877119100000001,125.784354
509,509,MABINI,41102.0,400,103.0,Compostela Valley,118203000,118200000,7.282129299999999,125.8574009
510,510,MACO,81277.0,342.23,237.0,Compostela Valley,118204000,118200000,7.359251,125.8579857
511,511,MARAGUSAN,60842.0,394.27,154.0,Compostela Valley,118205000,118200000,7.352188699999998,126.1545404
512,512,MAWAB,37065.0,136.1,272.0,Compostela Valley,118206000,118200000,7.517014,125.9369952
513,513,MONKAYO,94908.0,609.61,156.0,Compostela Valley,118207000,118200000,7.851448800000001,126.0458437
514,514,MONTEVISTA,43706.0,225,194.0,Compostela Valley,118208000,118200000,7.694217399999999,125.9805528
515,515,NABUNTURAN,82234.0,231.3,356.0,Compostela Valley,118209000,118200000,7.5853685,125.9805528
516,516,NEW BATAAN,47726.0,553.15,86.0,Compostela Valley,118210000,118200000,7.554701999999999,126.1403526
517,517,PANTUKAN,85899.0,533.11,161.0,Compostela Valley,118211000,118200000,7.255221700000001,126.1562026
518,518,ASUNCION,59322.0,297.39,199.0,Davao Del Norte,112301000,112300000,7.606025699999999,125.7625241
519,519,BRAULIO E. DUJALI,30104.0,91,331.0,Davao Del Norte,112323000,112300000,7.456819800000001,125.7079231
520,520,CARMEN,74679.0,166,45.0,Davao Del Norte,112303000,112300000,7.3682098,125.6860723
521,521,KAPALONG,76334.0,830.01,92.0,Davao Del Norte,112305000,112300000,7.6194971,125.6278353
522,522,NEW CORELLA,54844.0,263.12,208.0,Davao Del Norte,112314000,112300000,7.5977693,125.8498078
523,523,PANABO,184599.0,251.23,735.0,Davao Del Norte,112315000,112300000,7.3087068,125.6841178
524,524,SAMAL,104123.0,301.3,346.0,Davao Del Norte,112317000,112300000,7.103312,125.7188463
525,525,SAN ISIDRO,26651.0,152.49,175.0,Davao Del Norte,112324000,112300000,7.7599905,125.6751446
526,526,SANTO TOMAS,118750.0,221.8,535.0,Davao Del Norte,112318000,112300000,7.509288700000001,125.6314191
527,527,TAGUM,259444.0,195.8,1325.0,Davao Del Norte,112319000,112300000,7.447173299999999,125.8093465
528,528,TALAINGOD,27482.0,656.83,42.0,Davao Del Norte,112322000,112300000,7.6833875,125.5220012
529,529,BANSALAN,60440.0,157.75,383.0,Davao Del Sur,112401000,112400000,6.7908497,125.2055655
530,530,DAVAO,1632991.0,2443.61,593.0,Davao Del Sur,112402000,112400000,7.190708,125.455341
531,531,DIGOS,169393.0,287.1,590.0,Davao Del Sur,112403000,112400000,6.7575087,125.352398
532,532,HAGONOY,53309.0,114.28,466.0,Davao Del Sur,112404000,112400000,6.697007699999999,125.3137005
533,533,KIBLAWAN,48897.0,390.07,125.0,Davao Del Sur,112406000,112400000,6.632330899999999,125.2258365
534,534,MAGSAYSAY,53876.0,268.09,201.0,Davao Del Sur,112407000,112400000,6.7915557,125.148879
535,535,MALALAG,38731.0,186.12,208.0,Davao Del Sur,112408000,112400000,6.5489443,125.2587964
536,536,MATANAO,56755.0,202.4,280.0,Davao Del Sur,112410000,112400000,6.7525856,125.2381713
537,537,PADADA,26587.0,83,320.0,Davao Del Sur,112411000,112400000,6.643974699999999,125.3472743
538,538,SANTA CRUZ,90987.0,319.91,284.0,Davao Del Sur,112412000,112400000,6.8813156,125.3685679
539,539,SULOP,33613.0,155.26,216.0,Davao Del Sur,112414000,112400000,6.6252055,125.3137005
540,540,DON MARCELINO,44554.0,407.3,109.0,Davao Occidental,118601000,118600000,6.145601999999999,125.6314191
541,541,JOSE ABAD SANTOS,76332.0,600.06,127.0,Davao Occidental,118602000,118600000,5.8340662,125.5438967
542,542,MALITA,117746.0,883.37,133.0,Davao Occidental,118603000,118600000,6.384302300000001,125.5815927
543,543,SANTA MARIA,53671.0,175,307.0,Davao Occidental,118604000,118600000,6.5152085,125.4562795
544,544,SARANGANI,24039.0,97.72,246.0,Davao Occidental,118605000,118600000,5.4188064,125.4562795
545,545,BAGANGA,56241.0,945.5,59.0,Davao Oriental,112501000,112500000,7.600098900000001,126.3931354
546,546,BANAYBANAY,41117.0,408.52,101.0,Davao Oriental,112502000,112500000,7.1608407,126.1601269
547,547,BOSTON,13535.0,357.03,38.0,Davao Oriental,112503000,112500000,7.873545999999999,126.3414949
548,548,CARAGA,40379.0,642.7,63.0,Davao Oriental,112504000,112500000,7.3146285,126.5424418
549,549,CATEEL,40704.0,545.56,75.0,Davao Oriental,112505000,112500000,7.7649102,126.3714756
550,550,GOVERNOR GENEROSO,55109.0,365.75,151.0,Davao Oriental,112506000,112500000,6.5491487,126.1328132
551,551,LUPON,65785.0,886.39,74.0,Davao Oriental,112507000,112500000,7.106000099999999,126.1766432
552,552,MANAY,42690.0,418.36,102.0,Davao Oriental,112508000,112500000,7.216345899999999,126.4580775
553,553,MATI,141141.0,588.63,240.0,Davao Oriental,112509000,112500000,6.9521675,126.2173124
554,554,SAN ISIDRO,36032.0,220.44,163.0,Davao Oriental,112510000,112500000,6.782352299999999,126.11108
555,555,TARRAGONA,26225.0,300.76,87.0,Davao Oriental,112511000,112500000,7.0427766,126.4492213
556,556,BASILISA,36880.0,92.68,398.0,Dinagat Islands,168501000,168500000,10.0668367,125.6028665
557,557,CAGDIANAO,16808.0,249.48,67.0,Dinagat Islands,168502000,168500000,10.0174388,125.6642155
558,558,DINAGAT,10632.0,139.94,76.0,Dinagat Islands,168503000,168500000,9.9688109,125.5986093
559,559,LIBJO,17760.0,180.57,98.0,Dinagat Islands,168504000,168500000,10.193163,125.5438967
560,560,LORETO,9309.0,255.87,36.0,Dinagat Islands,168505000,168500000,10.3718808,125.6314191
561,561,SAN JOSE,27487.0,27.8,989.0,Dinagat Islands,168506000,168500000,10.0254969,125.5986093
562,562,TUBAJON,8276.0,90,92.0,Dinagat Islands,168507000,168500000,10.2933735,125.5767287
563,563,ARTECHE,16026.0,169.82,94.0,Eastern Samar,82601000,82600000,12.2873347,125.4124355
564,564,BALANGIGA,14085.0,190.05,74.0,Eastern Samar,82602000,82600000,11.2092175,125.3685679
565,565,BALANGKAYAN,10125.0,207.05,49.0,Eastern Samar,82603000,82600000,11.4469882,125.4911266
566,566,BORONGAN,69297.0,475,146.0,Eastern Samar,82604000,82600000,11.6079912,125.4328501
567,567,CAN-AVID,21015.0,288.7,73.0,Eastern Samar,82605000,82600000,11.9888576,125.3246769
568,568,DOLORES,42866.0,308.58,139.0,Eastern Samar,82606000,82600000,12.1055187,125.3246769
569,569,GENERAL MACARTHUR,14550.0,117.29,124.0,Eastern Samar,82607000,82600000,11.251902,125.5392241
570,570,GIPORLOS,13308.0,97.51,136.0,Eastern Samar,82608000,82600000,11.1145649,125.5000999
571,571,GUIUAN,52991.0,175.49,302.0,Eastern Samar,82609000,82600000,11.0319248,125.7261353
572,572,HERNANI,8573.0,49.42,173.0,Eastern Samar,82610000,82600000,11.3220587,125.5986093
573,573,JIPAPAD,7885.0,234.8,34.0,Eastern Samar,82611000,82600000,12.2806586,125.1928634
574,574,LAWAAN,12742.0,162.56,78.0,Eastern Samar,82612000,82600000,11.1825735,125.2807624
575,575,LLORENTE,20149.0,496.07,41.0,Eastern Samar,82613000,82600000,11.4111146,125.5404203
576,576,MASLOG,5407.0,249.8,22.0,Eastern Samar,82614000,82600000,12.1246408,125.1928634
577,577,MAYDOLONG,14743.0,399.63,37.0,Eastern Samar,82615000,82600000,11.4465154,125.3246769
578,578,MERCEDES,6070.0,23.32,260.0,Eastern Samar,82616000,82600000,11.096026,125.7079231
579,579,ORAS,36540.0,188.7,194.0,Eastern Samar,82617000,82600000,12.170534,125.4124355
580,580,QUINAPONDAN,14779.0,83.24,178.0,Eastern Samar,82618000,82600000,11.1913841,125.5000999
581,581,SALCEDO,22532.0,113.8,198.0,Eastern Samar,82619000,82600000,11.1735201,125.6314191
582,582,SAN JULIAN,14498.0,150.62,96.0,Eastern Samar,82620000,82600000,11.7430983,125.4108059
583,583,SAN POLICARPO,14687.0,78,188.0,Eastern Samar,82621000,82600000,12.2046953,125.4781649
584,584,SULAT,15377.0,169.75,91.0,Eastern Samar,82622000,82600000,11.8210543,125.4124355
585,585,TAFT,18915.0,231.27,82.0,Eastern Samar,82623000,82600000,11.9030929,125.4188331
586,586,BUENAVISTA,50437.0,128.26,393.0,Guimaras,67901000,67900000,10.6967157,122.650351
587,587,JORDAN,36096.0,126.11,286.0,Guimaras,67902000,67900000,10.5959757,122.5877782
588,588,NUEVA VALENCIA,39810.0,137.12,290.0,Guimaras,67903000,67900000,10.4329226,122.5598994
589,589,SAN LORENZO,26112.0,93.04,281.0,Guimaras,67904000,67900000,10.6045773,122.6842498
590,590,SIBUNAG,22158.0,120.04,185.0,Guimaras,67905000,67900000,10.5008371,122.650351
591,591,AGUINALDO,19408.0,538.05,36.0,Ifugao,142708000,142700000,16.952911,121.3312882
592,592,ALFONSO LISTA,32119.0,347.46,92.0,Ifugao,142707000,142700000,16.988521,121.4913182
593,593,ASIPULO,15261.0,182.87,83.0,Ifugao,142711000,142700000,16.7536572,121.0398298
594,594,BANAUE,21837.0,191.2,114.0,Ifugao,142701000,142700000,16.9496263,121.1022942
595,595,HINGYON,9227.0,62.02,149.0,Ifugao,142709000,142700000,16.8655953,121.1022942
596,596,HUNGDUAN,9400.0,260.3,36.0,Ifugao,142702000,142700000,16.8389028,121.0105733
597,597,KIANGAN,17048.0,200,85.0,Ifugao,142703000,142700000,16.7712337,121.0986722
598,598,LAGAWE,19333.0,208.91,93.0,Ifugao,142704000,142700000,16.8082549,121.193945
599,599,LAMUT,25279.0,159.65,158.0,Ifugao,142705000,142700000,16.6824142,121.193945
600,600,MAYOYAO,17331.0,238.05,73.0,Ifugao,142706000,142700000,16.9513131,121.2168466
601,601,TINOC,16559.0,239.7,69.0,Ifugao,142710000,142700000,16.7034987,120.9748491
602,602,ADAMS,1792.0,159.31,11.0,Ilocos Norte,12801000,12800000,18.4590814,120.9187827
603,603,BACARRA,32215.0,65.32,493.0,Ilocos Norte,12802000,12800000,18.2703871,120.6084832
604,604,BADOC,31616.0,76.68,412.0,Ilocos Norte,12803000,12800000,17.9084723,120.4933624
605,605,BANGUI,14672.0,112.98,130.0,Ilocos Norte,12804000,12800000,18.5127343,120.7349584
606,606,BANNA,19438.0,92.73,210.0,Ilocos Norte,12811000,12800000,17.9567926,120.6429991
607,607,BATAC,55201.0,161.06,343.0,Ilocos Norte,12805000,12800000,18.0460318,120.5940777
608,608,BURGOS,9777.0,128.9,76.0,Ilocos Norte,12806000,12800000,18.4659943,120.6429991
609,609,CARASI,1567.0,82.97,19.0,Ilocos Norte,12807000,12800000,18.2130413,120.8728615
610,610,CURRIMAO,12184.0,34.08,358.0,Ilocos Norte,12808000,12800000,18.0029484,120.510106
611,611,DINGRAS,38562.0,96,402.0,Ilocos Norte,12809000,12800000,18.0804954,120.7234992
612,612,DUMALNEG,2947.0,88.48,33.0,Ilocos Norte,12810000,12800000,18.4755816,120.8269231
613,613,LAOAG,111125.0,116.08,957.0,Ilocos Norte,12812000,12800000,18.1960128,120.5926679
614,614,MARCOS,17777.0,72.77,244.0,Ilocos Norte,12813000,12800000,18.0209461,120.7005044
615,615,NUEVA ERA,9506.0,515.02,18.0,Ilocos Norte,12814000,12800000,17.9407858,120.734995
616,616,PAGUDPUD,23770.0,194.9,122.0,Ilocos Norte,12815000,12800000,18.5874677,120.8220827
617,617,PAOAY,24866.0,76.24,326.0,Ilocos Norte,12816000,12800000,18.0742373,120.5163949
618,618,PASUQUIN,28980.0,210.54,138.0,Ilocos Norte,12817000,12800000,18.3385923,120.6429991
619,619,PIDDIG,21497.0,216.2,99.0,Ilocos Norte,12818000,12800000,18.1869397,120.7809676
620,620,PINILI,17300.0,89.48,193.0,Ilocos Norte,12819000,12800000,17.9429435,120.5394232
621,621,SAN NICOLAS,36736.0,40.18,914.0,Ilocos Norte,12820000,12800000,18.1470823,120.5854674
622,622,SARRAT,25212.0,57.39,439.0,Ilocos Norte,12821000,12800000,18.1137855,120.6545022
623,623,SOLSONA,24121.0,166.23,145.0,Ilocos Norte,12822000,12800000,18.102185,120.7809676
624,624,VINTAR,32220.0,614.35,52.0,Ilocos Norte,12823000,12800000,18.3141291,120.7809676
625,625,ALILEM,6695.0,119.33,56.0,Ilocos Sur,12901000,12900000,16.9108142,120.5722244
626,626,BANAYOYO,7748.0,24.63,315.0,Ilocos Sur,12902000,12900000,17.2350729,120.4991209
627,627,BANTAY,35731.0,76.6,466.0,Ilocos Sur,12903000,12900000,17.5983228,120.447285
628,628,BURGOS,12224.0,44.38,275.0,Ilocos Sur,12904000,12900000,17.3114833,120.5163949
629,629,CABUGAO,37501.0,95.56,392.0,Ilocos Sur,12905000,12900000,17.791812,120.4540193
630,630,CANDON,60623.0,103.28,587.0,Ilocos Sur,12906000,12900000,17.1874035,120.4467176
631,631,CAOAYAN,19861.0,17.42,1140.0,Ilocos Sur,12907000,12900000,17.5382154,120.3954282
632,632,CERVANTES,17211.0,234.7,73.0,Ilocos Sur,12908000,12900000,16.9765445,120.6890055
633,633,GALIMUYOD,10748.0,34.4,312.0,Ilocos Sur,12909000,12900000,17.1889596,120.5221524
634,634,GREGORIO DEL PILAR,4875.0,41.66,117.0,Ilocos Sur,12910000,12900000,17.1481741,120.6084832
635,635,LIDLIDDA,4647.0,33.84,137.0,Ilocos Sur,12911000,12900000,17.2653418,120.5394232
636,636,MAGSINGAL,30792.0,84.98,362.0,Ilocos Sur,12912000,12900000,17.6830987,120.447285
637,637,NAGBUKEL,5259.0,43.12,122.0,Ilocos Sur,12913000,12900000,17.4345326,120.5394232
638,638,NARVACAN,44006.0,122.21,360.0,Ilocos Sur,12914000,12900000,17.463462,120.4933624
639,639,QUIRINO,8573.0,240.1,36.0,Ilocos Sur,12915000,12900000,17.103087,120.6890055
640,640,SALCEDO,11288.0,103.44,109.0,Ilocos Sur,12916000,12900000,17.1347188,120.5624474
641,641,SAN EMILIO,7407.0,141.44,52.0,Ilocos Sur,12917000,12900000,17.2451452,120.5969758
642,642,SAN ESTEBAN,8349.0,19.62,426.0,Ilocos Sur,12918000,12900000,17.3273706,120.4530456
643,643,SAN ILDEFONSO,7787.0,11.35,686.0,Ilocos Sur,12919000,12900000,17.623,120.3954282
644,644,SAN JUAN,26411.0,64.37,410.0,Ilocos Sur,12920000,12900000,17.7427698,120.4703258
645,645,SAN VICENTE,12758.0,12.6,1013.0,Ilocos Sur,12921000,12900000,17.6182471,120.3608455
646,646,SANTA,15340.0,109.1,141.0,Ilocos Sur,12922000,12900000,17.5135816,120.447285
647,647,SANTA CATALINA,13945.0,9.68,1441.0,Ilocos Sur,12923000,12900000,17.5864413,120.3608455
648,648,SANTA CRUZ,39868.0,88.78,449.0,Ilocos Sur,12924000,12900000,17.061675,120.4933624
649,649,SANTA LUCIA,25402.0,49.72,511.0,Ilocos Sur,12925000,12900000,17.1288754,120.4703258
650,650,SANTA MARIA,30321.0,63.31,479.0,Ilocos Sur,12926000,12900000,17.3788066,120.4933624
651,651,SANTIAGO,18759.0,46.36,405.0,Ilocos Sur,12927000,12900000,17.2807261,120.447285
652,652,SANTO DOMINGO,27975.0,55.49,504.0,Ilocos Sur,12928000,12900000,17.6446171,120.4242401
653,653,SIGAY,2737.0,81.55,34.0,Ilocos Sur,12929000,12900000,17.03398,120.5969758
654,654,SINAIT,25640.0,65.56,391.0,Ilocos Sur,12930000,12900000,17.8534666,120.5048792
655,655,SUGPON,4585.0,57.11,80.0,Ilocos Sur,12931000,12900000,16.7808997,120.5969758
656,656,SUYO,11446.0,124,92.0,Ilocos Sur,12932000,12900000,16.9658223,120.5624474
657,657,TAGUDIN,39277.0,151.19,260.0,Ilocos Sur,12933000,12900000,16.9387501,120.4703258
658,658,VIGAN,53879.0,25.12,2145.0,Ilocos Sur,12934000,12900000,17.5704898,120.3873299
659,659,AJUY,52268.0,175.57,298.0,Iloilo,63001000,63000000,11.1246161,123.0113568
660,660,ALIMODIAN,38408.0,144.82,265.0,Iloilo,63002000,63000000,10.8773088,122.367428
661,661,ANILAO,28684.0,100.31,286.0,Iloilo,63003000,63000000,11.0002604,122.740723
662,662,BADIANGAN,27005.0,77.5,348.0,Iloilo,63004000,63000000,10.9964817,122.5259596
663,663,BALASAN,33088.0,54.27,610.0,Iloilo,63005000,63000000,11.4592707,123.0901539
664,664,BANATE,32532.0,102.89,316.0,Iloilo,63006000,63000000,11.000592,122.8155554
665,665,BAROTAC NUEVO,54146.0,94.49,573.0,Iloilo,63007000,63000000,10.9216153,122.740723
666,666,BAROTAC VIEJO,45808.0,185.78,247.0,Iloilo,63008000,63000000,11.0625316,122.8761309
667,667,BATAD,21298.0,53.1,401.0,Iloilo,63009000,63000000,11.4169972,123.1126559
668,668,BINGAWAN,15199.0,85.2,178.0,Iloilo,63010000,63000000,11.2052871,122.593828
669,669,CABATUAN,58442.0,112.9,518.0,Iloilo,63012000,63000000,10.9091869,122.5146439
670,670,CALINOG,60413.0,274.55,220.0,Iloilo,63013000,63000000,11.1457896,122.5146439
671,671,CARLES,68160.0,104.05,655.0,Iloilo,63014000,63000000,11.5687532,123.2363246
672,672,CONCEPCION,43159.0,86.12,501.0,Iloilo,63015000,63000000,11.2147313,123.1044322
673,673,DINGLE,45335.0,98.37,461.0,Iloilo,63016000,63000000,11.0111309,122.650351
674,674,DUEÑAS,34242.0,90.52,378.0,Iloilo,63017000,63000000,11.0671826,122.593828
675,675,DUMANGAS,69108.0,128.7,537.0,Iloilo,63018000,63000000,10.8484102,122.695547
676,676,ESTANCIA,48546.0,29.38,1652.0,Iloilo,63019000,63000000,11.4619823,123.1463992
677,677,GUIMBAL,33820.0,44.61,758.0,Iloilo,63020000,63000000,10.6686639,122.2994127
678,678,IGBARAS,32004.0,148.72,215.0,Iloilo,63021000,63000000,10.7440839,122.2427
679,679,ILOILO,447992.0,78.34,5719.0,Iloilo,63022000,63000000,10.7201501,122.5621063
680,680,JANIUAY,63905.0,179.1,357.0,Iloilo,63023000,63000000,10.9987667,122.424074
681,681,LAMBUNAO,73640.0,407.09,181.0,Iloilo,63025000,63000000,11.077708,122.424074
682,682,LEGANES,32480.0,32.2,1009.0,Iloilo,63026000,63000000,10.7916725,122.593828
683,683,LEMERY,30851.0,119.9,257.0,Iloilo,63027000,63000000,11.214412,122.9212265
684,684,LEON,49875.0,140.2,356.0,Iloilo,63028000,63000000,10.8208599,122.3447611
685,685,MAASIN,36922.0,128.59,287.0,Iloilo,63029000,63000000,10.8914767,122.4333105
686,686,MIAGAO,67565.0,156.8,431.0,Iloilo,63030000,63000000,10.6705468,122.1973081
687,687,MINA,23546.0,43.4,543.0,Iloilo,63031000,63000000,10.9516879,122.5712101
688,688,NEW LUCENA,23240.0,44.1,527.0,Iloilo,63032000,63000000,10.8729712,122.5712101
689,689,OTON,89115.0,86.44,1031.0,Iloilo,63034000,63000000,10.7240176,122.4562615
690,690,PASSI,80544.0,251.39,320.0,Iloilo,63035000,63000000,11.1687967,122.650351
691,691,PAVIA,55603.0,27.15,2048.0,Iloilo,63036000,63000000,10.7603368,122.5259596
692,692,POTOTAN,75070.0,97.1,773.0,Iloilo,63037000,63000000,10.9239245,122.6390489
693,693,SAN DIONISIO,38775.0,127.06,305.0,Iloilo,63038000,63000000,11.3101048,123.1014056
694,694,SAN ENRIQUE,33911.0,110.28,307.0,Iloilo,63039000,63000000,11.1098942,122.7294309
695,695,SAN JOAQUIN,51892.0,234.84,221.0,Iloilo,63040000,63000000,10.5887998,122.1396745
696,696,SAN MIGUEL,27686.0,31.97,866.0,Iloilo,63041000,63000000,10.7823601,122.463708
697,697,SAN RAFAEL,16532.0,67.05,247.0,Iloilo,63042000,63000000,11.1467423,122.831015
698,698,SANTA BARBARA,60215.0,131.96,456.0,Iloilo,63043000,63000000,10.8166467,122.5485873
699,699,SARA,52631.0,169.02,311.0,Iloilo,63044000,63000000,11.2932407,123.000095
700,700,TIGBAUAN,62706.0,83.68,749.0,Iloilo,63045000,63000000,10.7283347,122.3787597
701,701,TUBUNGAN,22449.0,85.18,264.0,Iloilo,63046000,63000000,10.7893861,122.2767313
702,702,ZARRAGA,25605.0,54.48,470.0,Iloilo,63047000,63000000,10.8283042,122.6164409
703,703,ALICIA,71504.0,154.1,464.0,Isabela,23101000,23100000,16.806905,121.6967438
704,704,ANGADANAN,43061.0,204.4,211.0,Isabela,23102000,23100000,16.791298,121.7879244
705,705,AURORA,35017.0,115.56,303.0,Isabela,23103000,23100000,16.9774485,121.6169002
706,706,BENITO SOLIVEN,29624.0,184.4,161.0,Isabela,23104000,23100000,16.9347472,121.9245556
707,707,BURGOS,23784.0,73.1,325.0,Isabela,23105000,23100000,17.0994105,121.7044149
708,708,CABAGAN,50174.0,430.4,117.0,Isabela,23106000,23100000,17.3607797,121.8790306
709,709,CABATUAN,39413.0,72,547.0,Isabela,23107000,23100000,16.9277583,121.662532
710,710,CAUAYAN,129523.0,336.4,385.0,Isabela,23108000,23100000,16.9166244,121.7879244
711,711,CORDON,42926.0,144,298.0,Isabela,23109000,23100000,16.6783497,121.4684703
712,712,DELFIN ALBANO,26614.0,189,141.0,Isabela,23118000,23100000,17.2592492,121.7423434
713,713,DINAPIGUE,5005.0,574.4,9.0,Isabela,23110000,23100000,16.6959631,122.2200065
714,714,DIVILACAN,5687.0,889.49,6.0,Isabela,23111000,23100000,17.2704978,122.151897
715,715,ECHAGUE,79094.0,680.8,116.0,Isabela,23112000,23100000,16.6701364,121.7171058
716,716,GAMU,29904.0,129.4,231.0,Isabela,23113000,23100000,17.0838631,121.7879244
717,717,ILAGAN,145568.0,1166.26,125.0,Isabela,23114000,23100000,17.1381186,121.8734492
718,718,JONES,45666.0,670.14,68.0,Isabela,23115000,23100000,16.5826218,121.7879244
719,719,LUNA,19326.0,45.7,423.0,Isabela,23116000,23100000,16.9787186,121.7309452
720,720,MACONACON,4253.0,538.66,8.0,Isabela,23117000,23100000,17.362137,122.1064668
721,721,MALLIG,30459.0,133.4,228.0,Isabela,23119000,23100000,17.1993375,121.6054893
722,722,NAGUILIAN,31902.0,169.81,188.0,Isabela,23120000,23100000,16.9968391,121.8676464
723,723,PALANAN,17260.0,880.24,20.0,Isabela,23121000,23100000,16.9969158,122.4014193
724,724,QUEZON,25860.0,189.9,136.0,Isabela,23122000,23100000,17.3251266,121.6054893
725,725,QUIRINO,24501.0,126.2,194.0,Isabela,23123000,23100000,17.1755008,121.7423434
726,726,RAMON,52707.0,135.17,390.0,Isabela,23124000,23100000,16.8046953,121.5255815
727,727,REINA MERCEDES,26998.0,57.14,472.0,Isabela,23125000,23100000,17.0087017,121.7993168
728,728,ROXAS,61773.0,184.8,334.0,Isabela,23126000,23100000,17.1030766,121.6169002
729,729,SAN AGUSTIN,22880.0,278.4,82.0,Isabela,23127000,23100000,16.4915291,121.8334868
730,730,SAN GUILLERMO,20200.0,325.49,62.0,Isabela,23128000,23100000,16.7183078,121.9700618
731,731,SAN ISIDRO,24861.0,71.9,346.0,Isabela,23129000,23100000,16.7473584,121.6169002
732,732,SAN MANUEL,31896.0,112.77,283.0,Isabela,23130000,23100000,17.0193149,121.6169002
733,733,SAN MARIANO,55370.0,1469.5,38.0,Isabela,23131000,23100000,16.9835158,122.0127979
734,734,SAN MATEO,64505.0,120.6,535.0,Isabela,23132000,23100000,16.8767261,121.5940773
735,735,SAN PABLO,25384.0,637.9,40.0,Isabela,23133000,23100000,17.4615083,121.7943475
736,736,SANTA MARIA,25382.0,140,181.0,Isabela,23134000,23100000,17.4768522,121.6967438
737,737,SANTIAGO,134830.0,255.5,528.0,Isabela,23135000,23100000,16.6968106,121.5584998
738,738,SANTO TOMAS,23005.0,60.7,379.0,Isabela,23136000,23100000,17.3555172,121.7309452
739,739,TUMAUINI,67650.0,467.3,145.0,Isabela,23137000,23100000,17.2770781,121.8790306
740,740,BALBALAN,12195.0,542.69,22.0,Kalinga,143201000,143200000,17.5309531,121.1481284
741,741,LUBUAGAN,8733.0,234.2,37.0,Kalinga,143206000,143200000,17.3018126,121.0105733
742,742,PASIL,9644.0,189,51.0,Kalinga,143208000,143200000,17.4124793,121.1022942
743,743,PINUKPUK,32026.0,743.56,43.0,Kalinga,143209000,143200000,17.6082869,121.3084088
744,744,RIZAL,17038.0,231,74.0,Kalinga,143211000,143200000,17.4929726,121.6054893
745,745,TABUK,110642.0,700.25,158.0,Kalinga,143213000,143200000,17.4117354,121.4384498
746,746,TANUDAN,9534.0,307.55,31.0,Kalinga,143214000,143200000,17.2625583,121.2397438
747,747,TINGLAYAN,12868.0,283,45.0,Kalinga,143215000,143200000,17.2440386,121.1022942
748,748,AGOO,63692.0,52.84,1205.0,La Union,13301000,13300000,16.3247042,120.3550808
749,749,ARINGAY,47458.0,84.54,561.0,La Union,13302000,13300000,16.388791,120.3884732
750,750,BACNOTAN,42078.0,76.6,549.0,La Union,13303000,13300000,16.7339713,120.3666099
751,751,BAGULIN,13456.0,107.33,125.0,La Union,13304000,13300000,16.5975302,120.4933624
752,752,BALAOAN,39188.0,68.7,570.0,La Union,13305000,13300000,16.8022485,120.4011911
753,753,BANGAR,35947.0,37.36,962.0,La Union,13306000,13300000,16.8829454,120.4242401
754,754,BAUANG,75032.0,73.15,1026.0,La Union,13307000,13300000,16.5143324,120.3550808
755,755,BURGOS,8067.0,70.8,114.0,La Union,13308000,13300000,16.5380324,120.4703258
756,756,CABA,22039.0,46.31,476.0,La Union,13309000,13300000,16.4474302,120.378138
757,757,LUNA,35802.0,42.9,835.0,La Union,13310000,13300000,16.8308486,120.3550808
758,758,NAGUILIAN,54221.0,104.6,518.0,La Union,13311000,13300000,16.5156612,120.4127161
759,759,PUGO,19690.0,62.84,313.0,La Union,13312000,13300000,16.3213296,120.4760853
760,760,ROSARIO,55458.0,73.98,750.0,La Union,13313000,13300000,16.2301228,120.4870234
761,761,SAN FERNANDO,121812.0,102.72,1186.0,La Union,13314000,13300000,16.6159132,120.3210331
762,762,SAN GABRIEL,18172.0,129.87,140.0,La Union,13315000,13300000,16.6694259,120.5048792
763,763,SAN JUAN,37188.0,57.12,651.0,La Union,13316000,13300000,16.6719671,120.3627578
764,764,SANTO TOMAS,39092.0,64,611.0,La Union,13317000,13300000,16.2753212,120.4011911
765,765,SANTOL,12476.0,93.7,133.0,La Union,13318000,13300000,16.7537529,120.5048792
766,766,SUDIPEN,17056.0,97.59,175.0,La Union,13319000,13300000,16.8998156,120.4882604
767,767,TUBAO,28729.0,50.75,566.0,La Union,13320000,13300000,16.3558626,120.4242401
768,768,ALAMINOS,47859.0,57.46,833.0,Laguna,43401000,43400000,14.0616209,121.2603964
769,769,BAY,62143.0,42.66,1457.0,Laguna,43402000,43400000,14.1320007,121.2569138
770,770,BIÑAN,333028.0,43.5,7656.0,Laguna,43403000,43400000,14.3036345,121.0781493
771,771,CABUYAO,308745.0,43.3,7130.0,Laguna,43404000,43400000,14.2471423,121.1366715
772,772,CALAMBA,454486.0,149.5,3040.0,Laguna,43405000,43400000,14.1876712,121.1250825
773,773,CALAUAN,80453.0,65.4,1230.0,Laguna,43406000,43400000,14.1383725,121.3198491
774,774,CAVINTI,21702.0,203.58,107.0,Laguna,43407000,43400000,14.2646732,121.5455292
775,775,FAMY,16587.0,53.06,313.0,Laguna,43408000,43400000,14.4730084,121.4842448
776,776,KALAYAAN,23269.0,46.6,499.0,Laguna,43409000,43400000,14.3312951,121.548418
777,777,LILIW,36582.0,39.1,936.0,Laguna,43410000,43400000,14.1364476,121.4399041
778,778,LOS BAÑOS,112008.0,54.22,2066.0,Laguna,43411000,43400000,14.1699121,121.2440631
779,779,LUISIANA,19720.0,73.31,269.0,Laguna,43412000,43400000,14.190771,121.5255815
780,780,LUMBAN,30652.0,40.53,756.0,Laguna,43413000,43400000,14.2956294,121.4961581
781,781,MABITAC,20530.0,80.76,254.0,Laguna,43414000,43400000,14.433825,121.4113308
782,782,MAGDALENA,25266.0,34.88,724.0,Laguna,43415000,43400000,14.204077,121.43419
783,783,MAJAYJAY,27792.0,69.58,399.0,Laguna,43416000,43400000,14.1446723,121.4722813
784,784,NAGCARLAN,63057.0,78.1,807.0,Laguna,43417000,43400000,14.1490291,121.3884671
785,785,PAETE,25096.0,55.02,456.0,Laguna,43418000,43400000,14.367518,121.5299539
786,786,PAGSANJAN,42164.0,26.36,1600.0,Laguna,43419000,43400000,14.2624365,121.4570447
787,787,PAKIL,20659.0,46.5,444.0,Laguna,43420000,43400000,14.37298,121.4399041
788,788,PANGIL,24274.0,45.03,539.0,Laguna,43421000,43400000,14.4074227,121.4856066
789,789,PILA,50289.0,31.2,1612.0,Laguna,43422000,43400000,14.2346148,121.3655989
790,790,RIZAL,17253.0,27.9,618.0,Laguna,43423000,43400000,14.0840758,121.4113308
791,791,SAN PABLO,266068.0,197.56,1347.0,Laguna,43424000,43400000,14.0642108,121.3233369
792,792,SAN PEDRO,325809.0,24.05,13547.0,Laguna,43425000,43400000,14.3528609,121.0458348
793,793,SANTA CRUZ,117605.0,38.59,3048.0,Laguna,43426000,43400000,14.2691095,121.4113308
794,794,SANTA MARIA,30830.0,108.4,284.0,Laguna,43427000,43400000,14.5128779,121.43419
795,795,SANTA ROSA,353767.0,54.84,6451.0,Laguna,43428000,43400000,14.2843023,121.0888928
796,796,SINILOAN,38067.0,64.51,590.0,Laguna,43429000,43400000,14.4383064,121.4856066
797,797,VICTORIA,39321.0,22.35,1759.0,Laguna,43430000,43400000,14.202753,121.3370074
798,798,BACOLOD,23034.0,104.1,221.0,Lanao Del Norte,103501000,103500000,8.1475407,124.0307246
799,799,BALOI,58383.0,90.98,642.0,Lanao Del Norte,103502000,103500000,8.1098952,124.2310439
800,800,BAROY,22600.0,72.35,312.0,Lanao Del Norte,103503000,103500000,7.9797419,123.8299639
801,801,ILIGAN,342618.0,813.37,397.0,Lanao Del Norte,103504000,103500000,8.228020899999999,124.2452422
802,802,KAPATAGAN,62853.0,242.89,259.0,Lanao Del Norte,103505000,103500000,7.867763699999999,123.7294198
803,803,KAUSWAGAN,26278.0,60.37,435.0,Lanao Del Norte,103507000,103500000,8.1598562,124.097547
804,804,KOLAMBUGAN,27005.0,134.55,201.0,Lanao Del Norte,103508000,103500000,8.0854743,123.8969328
805,805,LALA,67727.0,140.25,483.0,Lanao Del Norte,103509000,103500000,7.948598,123.7629465
806,806,LINAMON,20341.0,76.38,266.0,Lanao Del Norte,103510000,103500000,8.1680122,124.1587576
807,807,MAGSAYSAY,19019.0,151.83,125.0,Lanao Del Norte,103511000,103500000,8.0274204,123.919245
808,808,MAIGO,21666.0,121.45,178.0,Lanao Del Norte,103512000,103500000,8.114427899999999,123.986149
809,809,MATUNGAO,13975.0,45.74,306.0,Lanao Del Norte,103513000,103500000,8.1162301,124.1643201
810,810,MUNAI,32973.0,197.5,167.0,Lanao Del Norte,103514000,103500000,7.9467365,124.0864133
811,811,NUNUNGAN,18367.0,473.28,39.0,Lanao Del Norte,103515000,103500000,7.8309326,123.9303991
812,812,PANTAO RAGAT,27866.0,124.3,224.0,Lanao Del Norte,103516000,103500000,8.0542035,124.1309397
813,813,PANTAR,21773.0,70.4,309.0,Lanao Del Norte,103523000,103500000,8.0705732,124.2532741
814,814,POONA PIAGAPO,27018.0,260.07,104.0,Lanao Del Norte,103517000,103500000,8.0873822,124.0752783
815,815,SALVADOR,31845.0,113.99,279.0,Lanao Del Norte,103518000,103500000,7.9011154,123.8746152
816,816,SAPAD,21309.0,140.03,152.0,Lanao Del Norte,103519000,103500000,7.8307388,123.8299639
817,817,SULTAN NAGA DIMAPORO,56764.0,230.99,246.0,Lanao Del Norte,103506000,103500000,7.7829761,123.7405967
818,818,TAGOLOAN,13253.0,69.7,190.0,Lanao Del Norte,103520000,103500000,8.142890699999999,124.2754988
819,819,TANGCAL,15181.0,178.62,85.0,Lanao Del Norte,103521000,103500000,7.9549843,123.997295
820,820,TUBOD,47165.0,246.8,191.0,Lanao Del Norte,103522000,103500000,7.9942672,123.8746152
821,821,AMAI MANABILANG,10401.0,544.1,19.0,Lanao Del Sur,153637000,153600000,7.745291599999999,124.6635297
822,822,BACOLOD-KALAWI,20841.0,491.57,42.0,Lanao Del Sur,153601000,153600000,7.873477500000001,124.1253751
823,823,BALABAGAN,26819.0,230,117.0,Lanao Del Sur,153602000,153600000,7.5434413,124.1420679
824,824,BALINDONG,29180.0,453.94,64.0,Lanao Del Sur,153603000,153600000,7.9281598,124.1865669
825,825,BAYANG,23965.0,230,104.0,Lanao Del Sur,153604000,153600000,7.7407545,124.2088081
826,826,BINIDAYAN,22079.0,280,79.0,Lanao Del Sur,153605000,153600000,7.763306300000001,124.1643201
827,827,BUADIPOSO-BUNTONG,16130.0,215,75.0,Lanao Del Sur,153633000,153600000,7.9651555,124.3865392
828,828,BUBONG,22336.0,798.5,28.0,Lanao Del Sur,153606000,153600000,8.0206263,124.4863567
829,830,CALANOGAS,13750.0,195,71.0,Lanao Del Sur,153632000,153600000,7.738334699999999,124.0307246
830,831,DITSAAN-RAMAIN,22299.0,527.98,42.0,Lanao Del Sur,153624000,153600000,8.0012742,124.3476909
831,832,GANASSI,23016.0,256,90.0,Lanao Del Sur,153609000,153600000,7.8064472,124.097547
832,833,KAPAI,18894.0,398.5,47.0,Lanao Del Sur,153610000,153600000,8.107560099999999,124.3532417
833,834,KAPATAGAN,15521.0,288.13,54.0,Lanao Del Sur,153639000,153600000,7.465773699999999,124.1865669
834,835,LUMBA-BAYABAO,36151.0,640.02,56.0,Lanao Del Sur,153611000,153600000,7.782120699999999,124.4641848
835,836,LUMBACA-UNAYAN,7260.0,42.28,172.0,Lanao Del Sur,153641000,153600000,7.7243588,124.236602
836,837,LUMBATAN,19105.0,158.39,121.0,Lanao Del Sur,153612000,153600000,7.7552165,124.2532741
837,838,LUMBAYANAGUE,16372.0,302.18,54.0,Lanao Del Sur,153636000,153600000,7.7747951,124.2921637
838,839,MADALUM,23127.0,498.39,46.0,Lanao Del Sur,153613000,153600000,7.875524099999999,124.1031133
839,840,MADAMBA,17756.0,225,79.0,Lanao Del Sur,153614000,153600000,7.8641537,124.0752783
840,841,MAGUING,24531.0,815.04,30.0,Lanao Del Sur,153611000,153600000,7.9053318,124.5306837
841,842,MAGUING,24531.0,815.04,30.0,Lanao Del Sur,153634000,153600000,7.9053318,124.5306837
842,843,MALABANG,43957.0,198.1,222.0,Lanao Del Sur,153615000,153600000,7.593200499999999,124.0728399
843,844,MARANTAO,32974.0,660,50.0,Lanao Del Sur,153616000,153600000,7.9653062,124.1865669
844,845,MARAWI,201785.0,87.55,2305.0,Lanao Del Sur,153617000,153600000,8.0106213,124.297718
845,846,MAROGONG,21319.0,365,58.0,Lanao Del Sur,153631000,153600000,7.605100200000001,124.1754442
846,847,MASIU,29176.0,170,172.0,Lanao Del Sur,153618000,153600000,7.8087467,124.3254842
847,848,MULONDO,16067.0,458.67,35.0,Lanao Del Sur,153619000,153600000,7.9216138,124.3689522
848,849,PAGAYAWAN,13139.0,218,60.0,Lanao Del Sur,153620000,153600000,7.7488201,124.1198102
849,850,PIAGAPO,25440.0,340.07,75.0,Lanao Del Sur,153621000,153600000,8.0024753,124.1865669
850,851,PICONG,16615.0,280,59.0,Lanao Del Sur,153635000,153600000,7.6907181,123.9415518
851,852,POONA BAYABAO,22227.0,242.34,92.0,Lanao Del Sur,153622000,153600000,7.8344621,124.3476909
852,853,PUALAS,12866.0,182.89,70.0,Lanao Del Sur,153623000,153600000,7.8105028,124.0530042
853,854,SAGUIARAN,24619.0,51.35,479.0,Lanao Del Sur,153625000,153600000,8.0168917,124.2310439
854,855,SULTAN DUMALONDONG,11298.0,275.8,41.0,Lanao Del Sur,153640000,153600000,7.6340809,124.2643871
855,856,TAGOLOAN II,11169.0,362.35,31.0,Lanao Del Sur,153638000,153600000,8.099079,124.4420073
856,857,TAMPARAN,25874.0,170,152.0,Lanao Del Sur,153626000,153600000,7.8725206,124.3365882
857,858,TARAKA,23644.0,435.4,54.0,Lanao Del Sur,153627000,153600000,7.8992785,124.3476909
858,859,TUBARAN,14749.0,435,34.0,Lanao Del Sur,153628000,153600000,7.6870181,124.0864133
859,860,TUGAYA,23814.0,155.1,154.0,Lanao Del Sur,153629000,153600000,7.8951444,124.1420679
860,861,WAO,45862.0,485.24,95.0,Lanao Del Sur,153630000,153600000,7.667596700000001,124.7077665
861,862,ABUYOG,59571.0,688.25,87.0,Leyte,83701000,83700000,10.6734811,125.0608405
862,863,ALANGALANG,55235.0,150.54,367.0,Leyte,83702000,83700000,11.2356459,124.8844867
863,864,ALBUERA,46332.0,303.35,153.0,Leyte,83703000,83700000,10.9053869,124.7519807
864,865,BABATNGON,27797.0,115.18,241.0,Leyte,83705000,83700000,11.3905109,124.8844867
865,866,BARUGO,32745.0,84.62,387.0,Leyte,83706000,83700000,11.3002334,124.7630307
866,867,BATO,38356.0,72.45,529.0,Leyte,83707000,83700000,10.3397687,124.8495304
867,868,BAYBAY,109432.0,459.34,238.0,Leyte,83708000,83700000,10.6521412,124.8525626
868,869,BURAUEN,52732.0,265.33,199.0,Leyte,83710000,83700000,10.9744227,124.8932548
869,870,CALUBIAN,31228.0,100.95,309.0,Leyte,83713000,83700000,11.4894843,124.3643423
870,871,CAPOOCAN,33617.0,185.4,181.0,Leyte,83714000,83700000,11.2320771,124.6192702
871,872,CARIGARA,51345.0,117.86,436.0,Leyte,83715000,83700000,11.2591386,124.7077665
872,873,DAGAMI,35147.0,161.65,217.0,Leyte,83717000,83700000,11.0564668,124.8513794
873,874,DULAG,47300.0,110.7,427.0,Leyte,83718000,83700000,10.9591507,125.0057695
874,875,HILONGOS,63431.0,192.92,329.0,Leyte,83719000,83700000,10.3708121,124.7533672
875,876,HINDANG,20924.0,50.04,418.0,Leyte,83720000,83700000,10.4305009,124.7441712
876,877,INOPACAN,20550.0,94.62,217.0,Leyte,83721000,83700000,10.4994873,124.7413712
877,878,ISABEL,46915.0,64.01,733.0,Leyte,83722000,83700000,10.9179536,124.4473541
878,879,JARO,43199.0,207.19,208.0,Leyte,83723000,83700000,11.1758335,124.7519807
879,880,JAVIER,25379.0,152.7,166.0,Leyte,83724000,83700000,10.790105,124.937714
880,881,JULITA,15114.0,53.3,284.0,Leyte,83725000,83700000,10.9841725,124.9616867
881,882,KANANGA,56575.0,144.2,392.0,Leyte,83726000,83700000,11.1647958,124.5587587
882,883,LA PAZ,19998.0,72.7,275.0,Leyte,83728000,83700000,10.88257,124.9286096
883,884,LEYTE,40639.0,181.26,224.0,Leyte,83729000,83700000,11.3496551,124.4641848
884,885,MACARTHUR,21211.0,57.57,368.0,Leyte,83730000,83700000,10.8302022,124.9616867
885,886,MAHAPLAG,27823.0,104.79,266.0,Leyte,83731000,83700000,10.6122717,124.9664732
886,887,MATAG-OB,18373.0,104.4,176.0,Leyte,83733000,83700000,11.124907,124.4752715
887,888,MATALOM,33121.0,132,251.0,Leyte,83734000,83700000,10.2470975,124.7961722
888,889,MAYORGA,17161.0,42.17,407.0,Leyte,83735000,83700000,10.8822823,124.9877399
889,890,MERIDA,29863.0,95.21,314.0,Leyte,83736000,83700000,10.9642537,124.519604
890,891,ORMOC,215031.0,613.6,350.0,Leyte,83738000,83700000,11.0384275,124.6192702
891,892,PALO,70052.0,221.27,317.0,Leyte,83739000,83700000,11.1583835,124.9918883
892,893,PALOMPON,58108.0,126.07,461.0,Leyte,83740000,83700000,11.0172133,124.4087307
893,894,PASTRANA,18002.0,86.35,208.0,Leyte,83741000,83700000,11.1196898,124.8844867
894,895,SAN ISIDRO,31641.0,122.5,258.0,Leyte,83742000,83700000,11.4144825,124.3421397
895,896,SAN MIGUEL,19420.0,145.11,134.0,Leyte,83743000,83700000,11.3271633,124.8513794
896,897,SANTA FE,20439.0,53.97,379.0,Leyte,83744000,83700000,11.179987,124.9396367
897,898,TABANGO,34195.0,96.62,354.0,Leyte,83745000,83700000,11.3112889,124.3865392
898,899,TABONTABON,11204.0,24.18,463.0,Leyte,83746000,83700000,11.0393413,124.9451498
899,900,TACLOBAN,242089.0,201.72,1200.0,Leyte,83747000,83700000,11.2543388,124.9616867
900,901,TANAUAN,55021.0,78.41,702.0,Leyte,83748000,83700000,11.1110256,125.0155856
901,902,TOLOSA,20978.0,22.54,931.0,Leyte,83749000,83700000,11.0332911,125.0278022
902,903,TUNGA,7584.0,7.7,985.0,Leyte,83750000,83700000,11.2476956,124.7575059
903,904,VILLABA,41891.0,150.31,279.0,Leyte,83751000,83700000,11.2029531,124.4278193
904,905,AMPATUAN,24801.0,255.4,97.0,Maguindanao,153801000,153800000,6.767450900000001,124.3899973
905,906,BARIRA,30004.0,392.61,76.0,Maguindanao,153818000,153800000,7.482659899999999,124.3088255
906,907,BULDON,35282.0,429.4,82.0,Maguindanao,153802000,153800000,7.474826,124.3976356
907,908,BULUAN,50008.0,699.5,71.0,Maguindanao,153803000,153800000,6.7432665,124.8016945
908,909,COTABATO,299438.0,176,1701.0,Maguindanao,129804000,129800000,7.2046668,124.2310439
909,910,DATU ABDULLAH SANGKI,23878.0,220,109.0,Maguindanao,153828000,153800000,6.8059674,124.5306837
910,911,DATU ANGGAL MIDTIMBANG,25016.0,85.43,293.0,Maguindanao,153831000,153800000,6.933332999999999,124.333333
911,912,DATU BLAH T. SINSUAT,25024.0,147.21,170.0,Maguindanao,153830000,153800000,6.865333,124.0195827
912,913,DATU HOFFER AMPATUAN,25012.0,461.1,54.0,Maguindanao,153835000,153800000,6.767450900000001,124.3899973
913,914,DATU MONTAWAL,34820.0,461.1,76.0,Maguindanao,153822000,153800000,7.104691799999999,124.7630307
914,915,DATU ODIN SINSUAT,99210.0,461.8,215.0,Maguindanao,153807000,153800000,7.062732,124.2866091
915,916,DATU PAGLAS,28387.0,132.1,215.0,Maguindanao,153805000,153800000,6.7410634,124.8844867
916,917,DATU PIANG,25600.0,302.97,84.0,Maguindanao,153806000,153800000,7.017805099999999,124.4974405
917,918,DATU SALIBO,14947.0,22.56,643.0,Maguindanao,153836000,153800000,7.003270799999999,124.4530968
918,919,DATU SAUDI-AMPATUAN,26427.0,60.16,439.0,Maguindanao,153826000,153800000,6.966833599999999,124.4530968
919,920,DATU UNSAY,11813.0,95.39,124.0,Maguindanao,153827000,153800000,6.9122227,124.4530968
920,921,GENERAL SALIPADA K. PENDATUN,28103.0,189.37,148.0,Maguindanao,153819000,153800000,6.8278241,124.7077665
921,922,GUINDULUNGAN,19911.0,130.68,152.0,Maguindanao,153825000,153800000,6.954103,124.3865392
922,923,KABUNTALAN,17276.0,371.08,47.0,Maguindanao,153814000,153800000,7.1201987,124.3643423
923,924,MAMASAPANO,24800.0,85.31,291.0,Maguindanao,153820000,153800000,6.9431397,124.519604
924,925,MANGUDADATU,25046.0,98.16,255.0,Maguindanao,153832000,153800000,6.7003903,124.8293008
925,926,MATANOG,29770.0,146.5,203.0,Maguindanao,153809000,153800000,7.459931099999999,124.2532741
926,927,NORTHERN KABUNTALAN,25232.0,106.77,236.0,Maguindanao,153834000,153800000,7.1776159,124.4420073
927,928,PAGALUNGAN,39653.0,898.76,44.0,Maguindanao,153810000,153800000,6.932976,124.7519807
928,929,PAGLAT,15920.0,177.74,90.0,Maguindanao,153823000,153800000,6.699999999999999,124.783333
929,930,PANDAG,25057.0,85.31,294.0,Maguindanao,153833000,153800000,6.776254,124.7851264
930,931,PARANG,89194.0,850.78,105.0,Maguindanao,153811000,153800000,7.3331287,124.2310439
931,932,RAJAH BUAYAN,23652.0,71.98,329.0,Maguindanao,153829000,153800000,6.9353922,124.5583766
932,933,SHARIFF AGUAK,31692.0,392.7,81.0,Maguindanao,153808000,153800000,6.8530801,124.3976356
933,934,SHARIFF SAYDONA MUSTAPHA,19855.0,101,197.0,Maguindanao,153837000,153800000,6.9422581,124.4198243
934,935,SOUTH UPI,40178.0,184.8,217.0,Maguindanao,153817000,153800000,6.851031799999999,124.1976882
935,936,SULTAN KUDARAT,95201.0,712.91,134.0,Maguindanao,153812000,153800000,7.262212700000001,124.3088255
936,937,SULTAN MASTURA,22261.0,242.07,92.0,Maguindanao,153824000,153800000,7.288472100000001,124.2699432
937,938,SULTAN SA BARONGIS,22425.0,291.3,77.0,Maguindanao,153813000,153800000,6.7987867,124.6192702
938,939,SULTAN SUMAGKA,14863.0,62.96,236.0,Maguindanao,153821000,153800000,6.996667,124.705278
939,940,TALAYAN,30032.0,143.84,209.0,Maguindanao,153816000,153800000,6.8884905,124.297718
940,941,UPI,53583.0,742.95,72.0,Maguindanao,153815000,153800000,7.0170998,124.1754442
941,942,BOAC,54730.0,212.7,257.0,Marinduque,174001000,174000000,13.3941301,121.8790306
942,943,BUENAVISTA,23988.0,81.25,295.0,Marinduque,174002000,174000000,13.247776,121.9814354
943,944,GASAN,34828.0,100.88,345.0,Marinduque,174003000,174000000,13.312811,121.8790306
944,945,MOGPOG,34043.0,108.06,315.0,Marinduque,174004000,174000000,13.516225,121.8790306
945,946,SANTA CRUZ,56408.0,270.77,208.0,Marinduque,174005000,174000000,13.4904357,122.0610174
946,947,TORRIJOS,30524.0,178.92,171.0,Marinduque,174006000,174000000,13.3343452,122.0155491
947,948,AROROY,86168.0,440.3,196.0,Masbate,54101000,54100000,12.4343877,123.3884924
948,949,BALENO,26096.0,204.38,128.0,Masbate,54102000,54100000,12.4095634,123.4607744
949,950,BALUD,38124.0,231,165.0,Masbate,54103000,54100000,11.9699666,123.1913722
950,951,BATUAN,15086.0,56.28,268.0,Masbate,54104000,54100000,12.3971807,123.7629465
951,952,CATAINGAN,50327.0,191.64,263.0,Masbate,54105000,54100000,11.9858771,123.9527031
952,953,CAWAYAN,67033.0,260.19,258.0,Masbate,54106000,54100000,12.0557941,123.7294198
953,954,CLAVERIA,43693.0,182.98,239.0,Masbate,54107000,54100000,12.8796205,123.2363246
954,955,DIMASALANG,26192.0,148.07,177.0,Masbate,54108000,54100000,12.167234,123.8522923
955,956,ESPERANZA,18568.0,67.49,275.0,Masbate,54109000,54100000,11.8112016,124.0084395
956,957,MANDAON,41262.0,280.8,147.0,Masbate,54110000,54100000,12.292135,123.3037143
957,958,MASBATE,95389.0,188,507.0,Masbate,54111000,54100000,12.3574346,123.5504076
958,959,MILAGROS,57473.0,565.3,102.0,Masbate,54112000,54100000,12.2446462,123.5056016
959,960,MOBO,38813.0,143.47,271.0,Masbate,54113000,54100000,12.2657693,123.6399562
960,961,MONREAL,26614.0,128.67,207.0,Masbate,54114000,54100000,12.6228602,123.6399562
961,962,PALANAS,26222.0,171.1,153.0,Masbate,54115000,54100000,12.1102077,123.9080896
962,963,PIO V. CORPUZ,23236.0,89.33,260.0,Masbate,54116000,54100000,11.8557616,124.041865
963,964,PLACER,55826.0,193.03,289.0,Masbate,54117000,54100000,11.9192977,123.8634544
964,965,SAN FERNANDO,23057.0,77.5,298.0,Masbate,54118000,54100000,12.4827401,123.7182415
965,966,SAN JACINTO,30372.0,122.4,248.0,Masbate,54119000,54100000,12.5370742,123.6846987
966,967,SAN PASCUAL,46674.0,246.65,189.0,Masbate,54120000,54100000,13.0487597,123.0338767
967,968,USON,56168.0,163.2,344.0,Masbate,54121000,54100000,12.1681478,123.7741195
968,969,ALORAN,27625.0,118.06,234.0,Misamis Occidental,104201000,104200000,8.4140426,123.8159379
969,970,BALIANGAO,17092.0,81.72,209.0,Misamis Occidental,104202000,104200000,8.6180946,123.6287673
970,971,BONIFACIO,32345.0,155.02,209.0,Misamis Occidental,104203000,104200000,8.1042281,123.5951925
971,972,CALAMBA,21676.0,104.64,207.0,Misamis Occidental,104204000,104200000,8.5132702,123.6399562
972,973,CLARIN,37548.0,84.5,444.0,Misamis Occidental,104205000,104200000,8.205338099999999,123.8012033
973,974,CONCEPCION,10937.0,61.6,178.0,Misamis Occidental,104206000,104200000,8.4046133,123.5951925
974,975,DON VICTORIANO CHIONGBIAN,10183.0,284.6,36.0,Misamis Occidental,104217000,104200000,8.254240099999999,123.5951925
975,976,JIMENEZ,27654.0,81.43,340.0,Misamis Occidental,104207000,104200000,8.3227548,123.7629465
976,977,LOPEZ JAENA,25055.0,94.7,265.0,Misamis Occidental,104208000,104200000,8.5267241,123.7503511
977,978,OROQUIETA,70757.0,237.88,297.0,Misamis Occidental,104209000,104200000,8.459526799999999,123.8006496
978,979,OZAMIZ,141828.0,169.95,835.0,Misamis Occidental,104210000,104200000,8.162410999999999,123.7741195
979,980,PANAON,10209.0,46.8,218.0,Misamis Occidental,104211000,104200000,8.3559951,123.8076302
980,981,PLARIDEL,38900.0,80,486.0,Misamis Occidental,104212000,104200000,8.6114752,123.6958809
981,982,SAPANG DALAGA,19983.0,93.93,213.0,Misamis Occidental,104213000,104200000,8.5281457,123.5839983
982,983,SINACABAN,18391.0,99.09,186.0,Misamis Occidental,104214000,104200000,8.2997217,123.8076302
983,984,TANGUB,63011.0,162.78,387.0,Misamis Occidental,104215000,104200000,8.09592,123.6846987
984,985,TUDELA,28932.0,98.52,294.0,Misamis Occidental,104216000,104200000,8.247742299999999,123.7629465
985,986,ALUBIJID,29724.0,85.56,347.0,Misamis Oriental,104301000,104300000,8.5359703,124.4530968
986,987,BALINGASAG,67059.0,147.11,456.0,Misamis Oriental,104302000,104300000,8.744484,124.7816122
987,988,BALINGOAN,11051.0,57.8,191.0,Misamis Oriental,104303000,104300000,9.0040169,124.8472678
988,989,BINUANGAN,7515.0,30.43,247.0,Misamis Oriental,104304000,104300000,8.9195807,124.7837456
989,990,CAGAYAN DE ORO,675950.0,412.8,1637.0,Misamis Oriental,104305000,104300000,8.4542363,124.6318977
990,991,CLAVERIA,48906.0,579.63,84.0,Misamis Oriental,104306000,104300000,8.678781899999999,124.9727096
991,992,EL SALVADOR,50204.0,106.15,473.0,Misamis Oriental,104307000,104300000,8.5281431,124.5176557
992,993,GINGOOG,124648.0,568.44,219.0,Misamis Oriental,104308000,104300000,8.8229902,125.0976355
993,994,GITAGUM,16373.0,43.4,377.0,Misamis Oriental,104309000,104300000,8.5613858,124.3865392
994,995,INITAO,32370.0,111.27,291.0,Misamis Oriental,104310000,104300000,8.4805169,124.3532417
995,996,JASAAN,54478.0,77.02,707.0,Misamis Oriental,104311000,104300000,8.6498173,124.7548322
996,997,KINOGUITAN,14391.0,42.56,338.0,Misamis Oriental,104312000,104300000,8.9809644,124.8127381
997,998,LAGONGLONG,21659.0,83.78,259.0,Misamis Oriental,104313000,104300000,8.8152403,124.8293008
998,999,LAGUINDINGAN,24405.0,44.23,552.0,Misamis Oriental,104314000,104300000,8.594346999999999,124.4309165
999,1000,LIBERTAD,12354.0,22.47,550.0,Misamis Oriental,104315000,104300000,8.531416,124.3587921
1000,1001,LUGAIT,19758.0,27.45,720.0,Misamis Oriental,104316000,104300000,8.348014899999999,124.2754988
1001,1002,MAGSAYSAY,34605.0,143.14,242.0,Misamis Oriental,104317000,104300000,8.9621721,125.2038559
1002,1003,MANTICAO,28422.0,123.01,231.0,Misamis Oriental,104318000,104300000,8.3683953,124.3532417
1003,1004,MEDINA,32907.0,148.29,222.0,Misamis Oriental,104319000,104300000,8.909828,125.0113654
1004,1005,NAAWAN,21213.0,88.5,240.0,Misamis Oriental,104320000,104300000,8.4348761,124.3421397
1005,1006,OPOL,61503.0,175.13,351.0,Misamis Oriental,104321000,104300000,8.4358992,124.519604
1006,1007,SALAY,28705.0,92.79,309.0,Misamis Oriental,104322000,104300000,8.8604235,124.7892687
1007,1008,SUGBONGCOGON,9226.0,26.5,348.0,Misamis Oriental,104323000,104300000,8.9591453,124.7865072
1008,1009,TAGOLOAN,73150.0,117.73,621.0,Misamis Oriental,104324000,104300000,8.538018,124.7889493
1009,1010,TALISAYAN,24505.0,140.33,175.0,Misamis Oriental,104325000,104300000,8.9580214,124.8955195
1010,1011,VILLANUEVA,39378.0,48.8,807.0,Misamis Oriental,104326000,104300000,8.576953399999999,124.7851264
1011,1012,BARLIG,4819.0,228.64,21.0,Mountain Province,144401000,144400000,17.0399912,121.1435274
1012,1013,BAUKO,31065.0,153,203.0,Mountain Province,144402000,144400000,16.9880897,120.8728615
1013,1014,BESAO,7040.0,173.62,41.0,Mountain Province,144403000,144400000,17.1097133,120.8384093
1014,1015,BONTOC,24643.0,396.1,62.0,Mountain Province,144404000,144400000,17.091256,121.0105733
1015,1016,NATONIN,10272.0,252,41.0,Mountain Province,144405000,144400000,17.1286233,121.2855249
1016,1017,PARACELIS,28121.0,570.16,49.0,Mountain Province,144406000,144400000,17.1562214,121.4913182
1017,1018,SABANGAN,9315.0,72.04,129.0,Mountain Province,144407000,144400000,16.9469291,120.9302603
1018,1019,SADANGA,8799.0,83.3,106.0,Mountain Province,144408000,144400000,17.167666,121.0564425
1019,1020,SAGADA,11127.0,83.32,134.0,Mountain Province,144409000,144400000,17.0981353,120.907304
1020,1021,TADIAN,19389.0,145.2,134.0,Mountain Province,144410000,144400000,16.9660794,120.8154358
1021,1022,CALOOCAN,1583978.0,53.20,29774.0,Manila,137501000,137500000,14.7565784,121.0449768
1022,1023,LAS PIÑAS,588894.0,32.02,18391.0,Manila,137601000,137600000,14.444546,120.9938736
1023,1024,MAKATI,582602.0,21.73,26811.0,Manila,137602000,137600000,14.554729,121.0244452
1024,1025,MALABON,365525.0,15.96,22903.0,Manila,137502000,137500000,14.6680747,120.9658454
1025,1026,MANDALUYONG,386276.0,11.06,34925.0,Manila,137401000,137400000,14.5794443,121.0359174
1026,1027,MANILA,1780148.0,42.88,41515.0,Manila,133900000,133900000,14.5995124,120.9842195
1027,1028,MARIKINA,450741.0,22.64,19909.0,Manila,137402000,137400000,14.65073,121.1028546
1028,1029,MUNTINLUPA,504509.0,41.67,12107.0,Manila,137603000,137600000,14.4081327,121.0414667
1029,1030,NAVOTAS,249463.0,11.51,21674.0,Manila,137503000,137500000,14.6732182,120.9350106
1030,1031,PARAÑAQUE,665822.0,47.28,14083.0,Manila,137604000,137600000,14.4793095,121.0198229
1031,1032,PASAY,416522.0,18.64,22346.0,Manila,137605000,137600000,14.5377516,121.0013794
1032,1033,PASIG,755300.0,31.46,24008.0,Manila,137403000,137400000,14.5763768,121.0851097
1033,1034,PATEROS,63840.0,1.76,36273.0,Manila,137606000,137600000,14.5454321,121.0686773
1034,1035,QUEZON,2936116.0,165.33,17759.0,Manila,137404000,137400000,14.6760413,121.0437003
1035,1036,SAN JUAN,122180.0,5.87,20814.0,Manila,137405000,137400000,14.6019309,121.0355375
1036,1037,TAGUIG,804915.0,45.18,17816.0,Manila,137607000,137600000,14.5176184,121.0508645
1037,1038,VALENZUELA,620422.0,45.75,13561.0,Manila,137504000,137500000,14.7010556,120.9830225
1038,1039,BACOLOD,561875.0,162.67,3454.0,Negros Occidental,64501000,64500000,10.6840053,122.9563021
1039,1040,BAGO,170981.0,401.2,426.0,Negros Occidental,64502000,64500000,10.503405,122.9663018
1040,1041,BINALBAGAN,67270.0,189.96,354.0,Negros Occidental,64503000,64500000,10.1999593,122.8664849
1041,1042,CADIZ,154723.0,524.57,295.0,Negros Occidental,64504000,64500000,10.8060057,123.213851
1042,1043,CALATRAVA,80624.0,504.5,160.0,Negros Occidental,64505000,64500000,10.6062889,123.4159263
1043,1044,CANDONI,21789.0,191.7,114.0,Negros Occidental,64506000,64500000,9.761059200000002,122.650351
1044,1045,CAUAYAN,102165.0,520,196.0,Negros Occidental,64507000,64500000,9.942985499999999,122.5825197
1045,1046,ENRIQUE B. MAGALONA,62921.0,113.25,556.0,Negros Occidental,64508000,64500000,10.8891201,123.0113568
1046,1047,ESCALANTE,94070.0,192.76,488.0,Negros Occidental,64509000,64500000,10.8291458,123.5056016
1047,1048,HIMAMAYLAN,106880.0,367.04,291.0,Negros Occidental,64510000,64500000,10.0902184,122.8683684
1048,1049,HINIGARAN,85602.0,154.92,553.0,Negros Occidental,64511000,64500000,10.2713554,122.8549853
1049,1050,HINOBA-AN,56819.0,414.5,137.0,Negros Occidental,64512000,64500000,9.5463157,122.5194418
1050,1051,ILOG,57389.0,281.7,204.0,Negros Occidental,64513000,64500000,9.983971,122.740723
1051,1052,ISABELA,62146.0,178.76,348.0,Negros Occidental,64514000,64500000,10.2256635,123.0113568
1052,1053,KABANKALAN,181977.0,697.35,261.0,Negros Occidental,64515000,64500000,9.9134117,122.8535755
1053,1054,LA CARLOTA,64469.0,137.29,470.0,Negros Occidental,64516000,64500000,10.4117687,123.000095
1054,1055,LA CASTELLANA,74855.0,185.22,404.0,Negros Occidental,64517000,64500000,10.3194742,123.0198024
1055,1056,MANAPLA,54845.0,112.86,486.0,Negros Occidental,64518000,64500000,10.9119601,123.1463992
1056,1057,MOISES PADILLA,41386.0,144.1,287.0,Negros Occidental,64519000,64500000,10.2626864,123.1126559
1057,1058,MURCIA,81286.0,279.14,291.0,Negros Occidental,64520000,64500000,10.5656309,123.1014056
1058,1059,PONTEVEDRA,51866.0,112.5,461.0,Negros Occidental,64521000,64500000,10.3526591,122.9212265
1059,1060,PULUPANDAN,27735.0,23,1206.0,Negros Occidental,64522000,64500000,10.5259472,122.8140914
1060,1061,SAGAY,146264.0,330.34,443.0,Negros Occidental,64523000,64500000,10.8783445,123.408176
1061,1062,SALVADOR BENEDICTO,25662.0,170.5,151.0,Negros Occidental,64532000,64500000,10.5641361,123.254713
1062,1063,SAN CARLOS,132536.0,451.5,294.0,Negros Occidental,64524000,64500000,10.4837342,123.4128956
1063,1064,SAN ENRIQUE,23907.0,28.84,829.0,Negros Occidental,64525000,64500000,10.4273504,122.8648538
1064,1065,SILAY,126930.0,214.8,591.0,Negros Occidental,64526000,64500000,10.7528182,123.0875623
1065,1066,SIPALAY,70070.0,379.78,185.0,Negros Occidental,64527000,64500000,9.719788699999999,122.4920088
1066,1067,TALISAY,102214.0,201.18,508.0,Negros Occidental,64528000,64500000,10.7325049,123.0113568
1067,1068,TOBOSO,42114.0,117.33,359.0,Negros Occidental,64529000,64500000,10.7176887,123.4607744
1068,1069,VALLADOLID,37833.0,48.03,788.0,Negros Occidental,64530000,64500000,10.4689768,122.8422959
1069,1070,VICTORIAS,87933.0,133.92,657.0,Negros Occidental,64531000,64500000,10.8698236,123.0901539
1070,1071,AMLAN,23624.0,111.85,211.0,Negros Oriental,74601000,74600000,9.4443634,123.1801309
1071,1072,AYUNGON,46303.0,265.1,175.0,Negros Oriental,74602000,74600000,9.8500812,123.1389366
1072,1073,BACONG,36527.0,40.3,906.0,Negros Oriental,74603000,74600000,9.2391819,123.2644093
1073,1074,BAIS,76291.0,319.64,239.0,Negros Oriental,74604000,74600000,9.5915686,123.1211792
1074,1075,BASAY,26566.0,162,164.0,Negros Oriental,74605000,74600000,9.438636899999999,122.6842498
1075,1076,BAYAWAN,117900.0,699.08,169.0,Negros Oriental,74606000,74600000,9.4498906,122.8535755
1076,1077,BINDOY,39819.0,173.7,229.0,Negros Oriental,74607000,74600000,9.7945327,123.0563914
1077,1078,CANLAON,54509.0,170.93,319.0,Negros Oriental,74608000,74600000,10.3604776,123.1913722
1078,1079,DAUIN,27786.0,114.1,244.0,Negros Oriental,74609000,74600000,9.1990827,123.2363246
1079,1080,DUMAGUETE,131377.0,33.62,3908.0,Negros Oriental,74610000,74600000,9.3068402,123.3054467
1080,1081,GUIHULNGAN,95969.0,388.56,247.0,Negros Oriental,74611000,74600000,10.1832304,123.213851
1081,1082,JIMALALUD,30945.0,139.5,222.0,Negros Oriental,74612000,74600000,10.0215739,123.1014056
1082,1083,LA LIBERTAD,38602.0,139.6,277.0,Negros Oriental,74613000,74600000,10.0502042,123.1913722
1083,1084,MABINAY,78864.0,319.44,247.0,Negros Oriental,74614000,74600000,9.7488302,122.9437667
1084,1085,MANJUYOD,42332.0,264.6,160.0,Negros Oriental,74615000,74600000,9.6739192,123.1014056
1085,1086,PAMPLONA,37596.0,202.2,186.0,Negros Oriental,74616000,74600000,9.447830399999999,123.0563914
1086,1087,SAN JOSE,20413.0,54.46,375.0,Negros Oriental,74617000,74600000,9.4012491,123.2250884
1087,1088,SANTA CATALINA,75756.0,523.1,145.0,Negros Oriental,74618000,74600000,9.2867599,122.9437667
1088,1089,SIATON,77696.0,335.9,231.0,Negros Oriental,74619000,74600000,9.1242532,123.0338767
1089,1090,SIBULAN,59455.0,163,365.0,Negros Oriental,74620000,74600000,9.3508301,123.1576444
1090,1091,TANJAY,80532.0,276.05,292.0,Negros Oriental,74621000,74600000,9.4957882,122.9663018
1091,1092,TAYASAN,35470.0,154.2,230.0,Negros Oriental,74622000,74600000,9.9441736,123.1014056
1092,1093,VALENCIA,34852.0,147.49,236.0,Negros Oriental,74623000,74600000,9.2802603,123.1913722
1093,1094,VALLEHERMOSO,38259.0,101.25,378.0,Negros Oriental,74624000,74600000,10.3390548,123.2924859
1094,1095,ZAMBOANGUITA,27552.0,85.86,321.0,Negros Oriental,74625000,74600000,9.1701181,123.1463992
1095,1096,ALLEN,25469.0,47.6,535.0,Northern Samar,84801000,84800000,12.5033683,124.287538
1096,1097,BIRI,11767.0,24.62,478.0,Northern Samar,84802000,84800000,12.6605974,124.4087307
1097,1098,BOBON,23668.0,130,182.0,Northern Samar,84803000,84800000,12.416216,124.5306837
1098,1099,CAPUL,12679.0,35.56,357.0,Northern Samar,84804000,84800000,12.4195328,124.1643201
1099,1100,CATARMAN,94037.0,464.43,202.0,Northern Samar,84805000,84800000,12.4198447,124.6414028
1100,1101,CATUBIG,33025.0,214.99,154.0,Northern Samar,84806000,84800000,12.4088292,125.0528834
1101,1102,GAMAY,23511.0,115.1,204.0,Northern Samar,84807000,84800000,12.3848356,125.2807624
1102,1103,LAOANG,61359.0,246.94,248.0,Northern Samar,84808000,84800000,12.6198618,125.0167866
1103,1104,LAPINIG,13020.0,57.3,227.0,Northern Samar,84809000,84800000,12.314904,125.2917432
1104,1105,LAS NAVAS,37947.0,282.61,134.0,Northern Samar,84810000,84800000,12.3064077,125.0167866
1105,1106,LAVEZARES,28770.0,119.5,241.0,Northern Samar,84811000,84800000,12.5257026,124.3865392
1106,1107,LOPE DE VEGA,14687.0,280,52.0,Northern Samar,84824000,84800000,12.2792099,124.6635297
1107,1108,MAPANAS,14025.0,117.85,119.0,Northern Samar,84812000,84800000,12.4695163,125.2368246
1108,1109,MONDRAGON,38726.0,288.9,134.0,Northern Samar,84813000,84800000,12.4169586,124.7961722
1109,1110,PALAPAG,34286.0,179.6,191.0,Northern Samar,84814000,84800000,12.5283023,125.1048713
1110,1111,PAMBUJAN,33062.0,163.9,202.0,Northern Samar,84815000,84800000,12.4645777,124.9396367
1111,1112,ROSARIO,10520.0,31.6,333.0,Northern Samar,84816000,84800000,12.5192689,124.4309165
1112,1113,SAN ANTONIO,9058.0,27,335.0,Northern Samar,84817000,84800000,12.4109731,124.2588308
1113,1114,SAN ISIDRO,26650.0,255.9,104.0,Northern Samar,84818000,84800000,12.3566415,124.3976356
1114,1115,SAN JOSE,17561.0,29.85,588.0,Northern Samar,84819000,84800000,12.540774,124.4863567
1115,1116,SAN ROQUE,30580.0,152.98,200.0,Northern Samar,84820000,84800000,12.4432703,124.8844867
1116,1117,SAN VICENTE,7856.0,15.8,497.0,Northern Samar,84821000,84800000,12.36781,124.041865
