,Facility Name,Ownership Major Classification,Ownership Sub-Classification for Government facilities,Region Name,Province,location,Hospital Licensing Status,Service Capability,Bed Capacity,lat,lon,City/Municipality Name,code,codenan
0,BALINDONG MUNICIPAL HOSPITAL,Government,National Government,AUTONOMOUS REGION IN MUSLIM MINDANAO (ARMM),Lanao Del Sur,BALINDONG,With License,Level 1,10.0,7.916963999999999,124.200093,,153603000,0
1,BULUAN DISTRICT HOSPITAL,Government,National Government,AUTONOMOUS REGION IN MUSLIM MINDANAO (ARMM),Maguindanao,BULUAN,With License,Level 1,100.0,6.723078399999999,124.7977409,,153803000,0
2,DATU HALUN SAKILAN MEMORIAL HOSPITAL,Government,National Government,AUTONOMOUS REGION IN MUSLIM MINDANAO (ARMM),Tawi-Tawi,BONGAO,With License,Level 1,50.0,5.0258106,119.77644140000001,,157002000,0
3,"DR. JOSE MA. TORRES MEMORIAL FOUNDATION HOSPITAL, INC.",Private,,AUTONOMOUS REGION IN MUSLIM MINDANAO (ARMM),Basilan,LAMITAN,With License,Level 1,,6.646832000000001,122.1017,,150702000,0
4,DR. SERAPIO MONTAÑER JR. AL-HAJ MEMORIAL HOSPITAL,Government,National Government,AUTONOMOUS REGION IN MUSLIM MINDANAO (ARMM),Lanao Del Sur,MALABANG,With License,Level 1,25.0,7.5808010999999995,124.08111880000001,,153615000,0
5,MAGUINDANAO PROVINCIAL HOSPITAL,Government,National Government,AUTONOMOUS REGION IN MUSLIM MINDANAO (ARMM),Maguindanao,DATU HOFFER AMPATUAN,With License,Level 2,299.0,6.851121000000001,124.43038200000001,,153835000,0
6,"MINDALANO SPECIALIST HOSPITAL FOUNDATION, INC.",Private,,AUTONOMOUS REGION IN MUSLIM MINDANAO (ARMM),Lanao Del Sur,MARAWI,With License,Level 1,50.0,8.0082685,124.2881913,,153617000,0
7,PANGUTARAN DISTRICT HOSPITAL,Government,National Government,AUTONOMOUS REGION IN MUSLIM MINDANAO (ARMM),Sulu,PANGUTARAN,With License,Level 1,25.0,6.298803400000001,120.584355,,156608000,0
8,SMD GENERAL HOSPITAL,Private,,AUTONOMOUS REGION IN MUSLIM MINDANAO (ARMM),Lanao Del Sur,MARAWI,With License,Level 1,50.0,7.999663000000001,124.292243,,153617000,0
9,AMAI PAKPAK MEDICAL CENTER,Government,Department Of Health,AUTONOMOUS REGION IN MUSLIM MINDANAO (ARMM),Lanao Del Sur,MARAWI,With License,Level 2,438.0,8.004511100000002,124.28400520000001,,153617000,0
10,EDIBORAH P. YAP MEMORIAL HOSPITAL,Government,National Government,AUTONOMOUS REGION IN MUSLIM MINDANAO (ARMM),Basilan,LAMITAN,With License,Level 1,25.0,6.6529004,122.1354892,,150702000,0
11,WAO DISTRICT HOSPITAL,Government,National Government,AUTONOMOUS REGION IN MUSLIM MINDANAO (ARMM),Lanao Del Sur,WAO,With License,Level 1,25.0,7.638364999999999,124.7219068,,153630000,0
12,SIASI DISTRICT HOSPITAL,Government,National Government,AUTONOMOUS REGION IN MUSLIM MINDANAO (ARMM),Sulu,SIASI,With License,Level 1,25.0,5.541874900000001,120.8178814,,156612000,0
13,SULU PROVINCIAL HOSPITAL,Government,National Government,AUTONOMOUS REGION IN MUSLIM MINDANAO (ARMM),Sulu,JOLO,With License,Level 2,100.0,6.0466105,121.0016102,,156602000,0
14,SULU SANITARIUM,Government,Department Of Health,AUTONOMOUS REGION IN MUSLIM MINDANAO (ARMM),Sulu,JOLO,With License,Level 1,75.0,6.050345,121.006014,,156602000,0
15,TUAN LIGADDUNG LIPAE MEMORIAL HOSPITAL,Government,National Government,AUTONOMOUS REGION IN MUSLIM MINDANAO (ARMM),Tawi-Tawi,SAPA-SAPA,With License,Level 1,25.0,5.01887,120.19959899999999,,157010000,0
16,CAMP SIONGCO STATION HOSPITAL,Government,Department of National Defense,AUTONOMOUS REGION IN MUSLIM MINDANAO (ARMM),Maguindanao,DATU ODIN SINSUAT,With License,Level 1,50.0,7.188866999999999,124.184082,,153807000,0
17,HOLY FAMILY HOSPITAL,Private,,AUTONOMOUS REGION IN MUSLIM MINDANAO (ARMM),Tawi-Tawi,BONGAO,With License,Level 1,,5.030715,119.769127,,157002000,0
18,DATU BLAH T. SINSUAT DISTRICT HOSPITAL,Government,National Government,AUTONOMOUS REGION IN MUSLIM MINDANAO (ARMM),Maguindanao,UPI,With License,Level 1,10.0,7.0198513999999985,124.1649263,,153815000,0
19,TAMPARAN DISTRICT HOSPITAL,Government,National Government,AUTONOMOUS REGION IN MUSLIM MINDANAO (ARMM),Lanao Del Sur,TAMPARAN,With License,Level 1,25.0,7.880045999999997,124.332955,,153626000,0
20,UNAYAN MUNICIPAL HOSPITAL,Government,National Government,AUTONOMOUS REGION IN MUSLIM MINDANAO (ARMM),Lanao Del Sur,BINIDAYAN,With License,Level 1,10.0,7.800885000000001,124.166572,,153605000,0
21,DATU ALAWADIN BANDON SR. MEMORIAL HOSPITAL,Government,National Government,AUTONOMOUS REGION IN MUSLIM MINDANAO (ARMM),Tawi-Tawi,SIBUTU,With License,Level 1,10.0,4.8402332999999995,119.4590288,,157011000,0
22,PARANG DISTRICT HOSPITAL,Government,National Government,AUTONOMOUS REGION IN MUSLIM MINDANAO (ARMM),Sulu,PARANG,With License,Level 1,25.0,5.9133339000000005,120.9052545,,156609000,0
23,LUUK DISTRICT HOSPITAL,Government,National Government,AUTONOMOUS REGION IN MUSLIM MINDANAO (ARMM),Sulu,LUUK,With License,Level 1,25.0,5.967575,121.30973229999998,,156604000,0
24,TAWI-TAWI DOCTOR'S HOSPITAL,Private, ,AUTONOMOUS REGION IN MUSLIM MINDANAO (ARMM),Tawi-Tawi,BONGAO,Without License,0,,5.0275376,119.77427809999999,,157002000,0
25,COTABATO SANITARIUM,Government,Department Of Health,AUTONOMOUS REGION IN MUSLIM MINDANAO (ARMM),Maguindanao,SULTAN KUDARAT,With License,Level 1,140.0,7.235902899999999,124.2691456,,153812000,0
26,DINAIG MUNICIPAL HOSPITAL,Government,National Government,AUTONOMOUS REGION IN MUSLIM MINDANAO (ARMM),Maguindanao,DATU ODIN SINSUAT,With License,Level 1,10.0,7.0239866,124.3120147,,153807000,0
27,"TAMPARAN MEDICAL FOUNDATION, INC. HOSPITAL",Private,,AUTONOMOUS REGION IN MUSLIM MINDANAO (ARMM),Lanao Del Sur,TAMPARAN,With License,Level 1,35.0,7.8764327000000005,124.32796780000001,,153626000,0
28,BONGAO DOCTOR'S HOSPITAL,Private,,AUTONOMOUS REGION IN MUSLIM MINDANAO (ARMM),Tawi-Tawi,BONGAO,With License,Level 1,,5.0275376,119.77427809999999,,157002000,0
29,SALAAM HOSPITAL,Private,,AUTONOMOUS REGION IN MUSLIM MINDANAO (ARMM),Lanao Del Sur,MARAWI,With License,Level 1,20.0,8.004035400000001,124.29535109999999,,153617000,0
30,DENNIS MOLINTAS DISTRICT HOSPITAL,Government,Local Government Unit,CORDILLERA ADMINISTRA TIVE REGION (CAR),Benguet,BOKOD,With License,Level 1,10.0,16.5096734,120.8235118,,141104000,0
31,BAGUIO GENERAL HOSPITAL AND MEDICAL CENTER,Government,Department Of Health,CORDILLERA ADMINISTRA TIVE REGION (CAR),Benguet,BAGUIO,With License,Level 3,500.0,16.4009911,120.59568270000001,,141102000,0
32,BANGUED CHRISTIAN HOSPITAL,Private,,CORDILLERA ADMINISTRA TIVE REGION (CAR),Abra,BANGUED,With License,Level 1,17.0,17.595812699999996,120.62117830000001,,140101000,0
33,ST. THEODORE'S HOSPITAL,Private,,CORDILLERA ADMINISTRA TIVE REGION (CAR),Mountain Province,SAGADA,With License,Level 1,17.0,17.0848622,120.90207040000001,,144409000,0
34,ST. PETER CLAVER HOSPITAL,Private,,CORDILLERA ADMINISTRA TIVE REGION (CAR),Kalinga,TABUK,Without License,0,,17.4681668,121.46647150000001,,143213000,0
35,DR. PETRONILO V. SEARES SR. MEMORIAL HOSPITAL,Private,,CORDILLERA ADMINISTRA TIVE REGION (CAR),Abra,BANGUED,With License,Level 1,24.0,17.598619699999997,120.61550829999999,,140101000,0
36,LEPANTO CONSOLIDATED MINING COMPANY HOSPITAL,Private,,CORDILLERA ADMINISTRA TIVE REGION (CAR),Benguet,MANKAYAN,With License,Level 1,,16.864254000000003,120.780301,,141111000,0
37,LUTHERAN HOSPITAL INCORPORATED,Private,,CORDILLERA ADMINISTRA TIVE REGION (CAR),Benguet,BUGUIAS,With License,Level 1,35.0,16.806135600000005,120.8239138,,141105000,0
38,BAGUIO REPRODUCTIVE HEALTH WELLNESS CENTER,Government,Local Government Unit,CORDILLERA ADMINISTRA TIVE REGION (CAR),Benguet,BAGUIO,Without License,0,,16.4214815,120.595606,,141102000,0
39,CONNER DISTRICT HOSPITAL,Government,Department Of Health,CORDILLERA ADMINISTRA TIVE REGION (CAR),Apayao,CONNER,With License,Level 1,25.0,17.800784699999998,121.3225347,,148102000,0
40,BENGUET GENERAL HOSPITAL,Government,Local Government Unit,CORDILLERA ADMINISTRA TIVE REGION (CAR),Benguet,LA TRINIDAD,With License,Level 2,150.0,16.450765099999998,120.58913290000001,,141110000,0
41,PINES CITY DOCTOR'S HOSPITAL,Private,,CORDILLERA ADMINISTRA TIVE REGION (CAR),Benguet,BAGUIO,With License,Level 2,110.0,16.426903,120.594532,,141102000,0
42,IFUGAO GENERAL HOSPITAL,Government,Local Government Unit,CORDILLERA ADMINISTRA TIVE REGION (CAR),Ifugao,LAGAWE,Without License,0,,16.805889699999998,121.11893219999999,,142704000,0
43,TANUDAN MUNICIPAL HOSPITAL,Government,Local Government Unit,CORDILLERA ADMINISTRA TIVE REGION (CAR),Kalinga,TANUDAN,Without License,0,,17.262558300000002,121.23974380000001,,143214000,0
44,LUIS HORA MEMORIAL REGIONAL HOSPITAL,Government,Department Of Health,CORDILLERA ADMINISTRA TIVE REGION (CAR),Mountain Province,BAUKO,With License,Level 2,75.0,16.981032199999998,120.85377220000001,,144402000,0
45,BAGUIO MEDICAL CENTER,Private,,CORDILLERA ADMINISTRA TIVE REGION (CAR),Benguet,BAGUIO,With License,Level 1,,16.4019617,120.5975916,,141102000,0
46,FAR NORTH LUZON GENERAL HOSPITAL AND TRAINING CENTER,Government,Department Of Health,CORDILLERA ADMINISTRA TIVE REGION (CAR),Apayao,LUNA,With License,Level 1,100.0,18.3395298,121.38382240000001,,148105000,0
47,POTIA DISTRICT HOSPITAL,Government,Local Government Unit,CORDILLERA ADMINISTRA TIVE REGION (CAR),Ifugao,ALFONSO LISTA,With License,Level 1,25.0,16.927026,121.4896226,,142707000,0
48,NOTRE DAME DE CHARTRES HOSPITAL,Private,,CORDILLERA ADMINISTRA TIVE REGION (CAR),Benguet,BAGUIO,With License,Level 2,104.0,16.415450099999997,120.598656,,141102000,0
49,PARACELIS DISTRICT HOSPITAL,Government,Local Government Unit,CORDILLERA ADMINISTRA TIVE REGION (CAR),Mountain Province,PARACELIS,With License,Level 1,25.0,17.1293741,121.4283121,,144406000,0
50,PANOPDOPAN DISTRICT HOSPITAL,Government,Local Government Unit,CORDILLERA ADMINISTRA TIVE REGION (CAR),Ifugao,LAMUT,With License,Level 1,25.0,16.6776989,121.2021369,,142705000,0
51,ATOK DISTRICT HOSPITAL,Government,Local Government Unit,CORDILLERA ADMINISTRA TIVE REGION (CAR),Benguet,ATOK,With License,Level 1,15.0,16.627325199999998,120.76697949999999,,141101000,0
52,BAGUIO FILIPINO CHINESE GENERAL HOSPITAL,Private, ,CORDILLERA ADMINISTRA TIVE REGION (CAR),Benguet,BAGUIO,Without License,0,,16.4223797,120.5989987,,141102000,0
53,ALMORA GENERAL HOSPITAL,Private,,CORDILLERA ADMINISTRA TIVE REGION (CAR),Kalinga,TABUK,With License,Level 1,,17.450001,121.45834199999999,,143213000,0
54,BESAO DISTRICT HOSPITAL,Government,Local Government Unit,CORDILLERA ADMINISTRA TIVE REGION (CAR),Mountain Province,BESAO,With License,Level 1,25.0,17.095308600000003,120.8556433,,144403000,0
55,HOLY TRINITY MEDICAL CLINIC,Private,,CORDILLERA ADMINISTRA TIVE REGION (CAR),Kalinga,TABUK,With License,Level 1,,17.3578425,121.43496929999999,,143213000,0
56,KALINGA PROVINCIAL HOSPITAL,Government,Local Government Unit,CORDILLERA ADMINISTRA TIVE REGION (CAR),Kalinga,TABUK,With License,Level 1,100.0,17.3578425,121.43496929999999,,143213000,0
57,ABRA PROVINCIAL HOSPITAL,Government,Local Government Unit,CORDILLERA ADMINISTRA TIVE REGION (CAR),Abra,BANGUED,With License,Level 1,155.0,17.6069046,120.6181777,,140101000,0
58,BONTOC GENERAL HOSPITAL,Government,Local Government Unit,CORDILLERA ADMINISTRA TIVE REGION (CAR),Mountain Province,BONTOC,With License,Level 1,100.0,17.0937063,120.9765676,,144404000,0
59,ST. LOUIS UNIVERSITY HOSPITAL OF THE SACRED HEART,Private,,CORDILLERA ADMINISTRA TIVE REGION (CAR),Benguet,BAGUIO,With License,Level 3,180.0,16.4173353,120.59792479999999,,141102000,0
60,ABRA CHILDREN'S CLINIC,Private, ,CORDILLERA ADMINISTRA TIVE REGION (CAR),Abra,BANGUED,Without License,0,,17.6024423,120.61797,,140101000,0
61,CORDILLERA HOSPITAL OF THE DIVINE GRACE,Private,,CORDILLERA ADMINISTRA TIVE REGION (CAR),Benguet,LA TRINIDAD,With License,Level 2,74.0,16.452586,120.574424,,141110000,0
62,SAN JUAN GENERAL HOSPITAL,Private,,CORDILLERA ADMINISTRA TIVE REGION (CAR),Kalinga,TABUK,With License,Level 1,20.0,17.4297928,121.4464666,,143213000,0
63,BANGUI DISTRICT HOSPITAL,Government,Local Government Unit,REGION I (ILOCOS REGION),Ilocos Norte,BANGUI,With License,Level 1,25.0,18.5334207,120.76184429999999,,12804000,0
64,MAPANDAN COMMUNITY HOSPITAL,Government,Local Government Unit,REGION I (ILOCOS REGION),Pangasinan,MAPANDAN,With License,Level 1,20.0,16.024455300000003,120.45636470000001,,15528000,0
65,ILOCOS SUR DISTRICT HOSPITAL - SINAIT,Government,Local Government Unit,REGION I (ILOCOS REGION),Ilocos Sur,SINAIT,With License,Level 1,25.0,17.854339399999997,120.45477609999999,,12930000,0
66,URDANETA DISTRICT HOSPITAL,Government,Local Government Unit,REGION I (ILOCOS REGION),Pangasinan,URDANETA,With License,Level 1,110.0,15.9738962,120.577969,,15546000,0
67,REGION I MEDICAL CENTER,Government,Department Of Health,REGION I (ILOCOS REGION),Pangasinan,DAGUPAN,With License,Level 3,300.0,16.0485481,120.34157079999999,,15518000,0
68,ILOCOS SUR DISTRICT HOSPITAL - MAGSINGAL,Government,Local Government Unit,REGION I (ILOCOS REGION),Ilocos Sur,MAGSINGAL,With License,Level 1,25.0,17.6893939,120.4278186,,12912000,0
69,"C AND H MEDICAL AND SURGICAL CLINIC, INC.",Private,,REGION I (ILOCOS REGION),Pangasinan,ALAMINOS,With License,Level 1,8.0,16.158789199999998,119.97630659999999,,15503000,0
70,DEL CARMEN MEDICAL CLINIC AND HOSPITAL,Private,,REGION I (ILOCOS REGION),Pangasinan,ROSALES,With License,Level 1,,15.8828866,120.59881840000001,,15531000,0
71,DAGUPAN ORTHOPEDIC CENTER,Private, ,REGION I (ILOCOS REGION),Pangasinan,DAGUPAN,Without License,0,,16.030071,120.328823,,15518000,0
72,AGOO FAMILY HOSPITAL,Private,,REGION I (ILOCOS REGION),La Union,AGOO,With License,Level 1,15.0,16.3439301,120.3601699,,13301000,0
73,"CUISON HOSPITAL, INC.",Private,,REGION I (ILOCOS REGION),Pangasinan,DAGUPAN,With License,Level 1,,16.040956599999998,120.3338584,,15518000,0
74,PIRA HOSPITAL,Private,,REGION I (ILOCOS REGION),Ilocos Sur,CABUGAO,With License,Level 1,29.0,17.792241399999998,120.4544395,,12905000,0
75,RESONABLE HOSPITAL,Private,,REGION I (ILOCOS REGION),Ilocos Sur,CANDON,With License,Level 1,24.0,17.191137,120.44944790000001,,12906000,0
76,RAMIREZ BAUTISTA MEMORIAL HOSPITAL,Private,,REGION I (ILOCOS REGION),Pangasinan,BINMALEY,With License,Level 1,18.0,16.029957999999997,120.26928999999998,,15513000,0
77,REYES ULEP CLINIC AND HOSPITAL,Private,,REGION I (ILOCOS REGION),Ilocos Sur,SANTA MARIA,With License,Level 1,18.0,17.3660909,120.4819429,,12926000,0
78,ELGUIRA GENERAL HOSPITAL,Private,,REGION I (ILOCOS REGION),Pangasinan,SAN CARLOS,With License,Level 2,,15.937539300000001,120.34656840000001,,15532000,0
79,LUZON MEDICAL CENTER INC.,Private,,REGION I (ILOCOS REGION),Pangasinan,DAGUPAN,With License,Level 2,70.0,16.0334918,120.33227279999998,,15518000,0
80,"ALAMINOS DOCTORS HOSPITAL, INC.",Private,,REGION I (ILOCOS REGION),Pangasinan,ALAMINOS,With License,Level 1,42.0,16.1307902,119.9706659,,15503000,0
81,ST. JAMES HOSPITAL VQR MEDICAL FOUNDATION,Private, ,REGION I (ILOCOS REGION),Ilocos Sur,VIGAN,With License,0,,17.5791629,120.3789485,,12934000,0
82,"LORMA MEDICAL CENTER, INC.",Private,,REGION I (ILOCOS REGION),La Union,SAN FERNANDO,With License,Level 3,200.0,16.6315149,120.3178716,,13314000,0
83,BANEZ HOSPITAL,Private, ,REGION I (ILOCOS REGION),Pangasinan,ROSALES,Without License,0,,15.879708800000001,120.60072720000001,,15531000,0
84,ILOCOS SUR DISTRICT HOSPITAL-BESSANG PASS CERVANTES,Government,Local Government Unit,REGION I (ILOCOS REGION),Ilocos Sur,CERVANTES,With License,Level 1,25.0,16.9884581,120.73362790000002,,12908000,0
85,DASOL COMMUNITY HOSPITAL,Government,Local Government Unit,REGION I (ILOCOS REGION),Pangasinan,DASOL,With License,Level 1,20.0,15.961906699999998,119.89392759999998,,15519000,0
86,LAOAG CITY GENERAL HOSPITAL,Government,Local Government Unit,REGION I (ILOCOS REGION),Ilocos Norte,LAOAG,With License,Level 1,50.0,18.188330800000003,120.5771854,,12812000,0
87,GAOAT GENERAL HOSPITAL,Private,,REGION I (ILOCOS REGION),Ilocos Norte,BATAC,With License,Level 1,,18.050314,120.565247,,12805000,0
88,VIRGEN MILAGROSA MEDICAL CENTER,Private,,REGION I (ILOCOS REGION),Pangasinan,SAN CARLOS,With License,Level 2,75.0,15.920494699999999,120.3416707,,15532000,0
89,LINGAYEN DISTRICT HOSPITAL,Government,Local Government Unit,REGION I (ILOCOS REGION),Pangasinan,LINGAYEN,With License,Level 1,40.0,16.018333900000002,120.2293324,,15522000,0
90,PERPETUAL HELP HOSPITAL,Private, ,REGION I (ILOCOS REGION),Pangasinan,MALASIQUI,Without License,0,,15.922457699999999,120.4137396,,15524000,0
91,PANGASINAN PROVINCIAL HOSPITAL,Government,Local Government Unit,REGION I (ILOCOS REGION),Pangasinan,SAN CARLOS,With License,Level 2,150.0,15.954235,120.349795,,15532000,0
92,GOV. ROQUE B. ABLAN SR. MEMORIAL HOSPITAL,Government,Local Government Unit,REGION I (ILOCOS REGION),Ilocos Norte,LAOAG,With License,Level 2,100.0,18.199345899999997,120.6014423,,12812000,0
93,MANGATAREM DISTRICT HOSPITAL,Government,Local Government Unit,REGION I (ILOCOS REGION),Pangasinan,MANGATAREM,With License,Level 1,25.0,15.742182000000001,120.325616,,15527000,0
94,"STA. TERESITA HOSPITAL, INC.",Private,,REGION I (ILOCOS REGION),Ilocos Norte,MARCOS,With License,Level 2,50.0,18.01524,120.673983,,12813000,0
95,DIVINE MERCY FOUNDATION OF URDANETA HOSPITAL,Private,,REGION I (ILOCOS REGION),Pangasinan,URDANETA,With License,Level 1,,15.9395525,120.6554979,,15546000,0
96,ILOCOS SUR DISTRICT HOSPITAL - SANTA LUCIA,Government,Local Government Unit,REGION I (ILOCOS REGION),Ilocos Sur,SANTA LUCIA,With License,Level 1,25.0,17.105679100000003,120.4557309,,12925000,0
97,FRANCISCO GENERAL HOSPITAL,Private, ,REGION I (ILOCOS REGION),Pangasinan,URDANETA,Without License,0,,15.957266,120.575631,,15546000,0
98,MARIANO MARCOS MEMORIAL HOSPITAL AND MEDICAL CENTER,Government,Department Of Health,REGION I (ILOCOS REGION),Ilocos Norte,BATAC,With License,Level 3,200.0,18.0604061,120.5591422,,12805000,0
99,ST. THOMAS AQUINAS MEDICAL CLINIC,Private, ,REGION I (ILOCOS REGION),Pangasinan,BINALONAN,Without License,0,,16.0491851,120.5893761,,15512000,0
100,ILOCOS TRAINING AND REGIONAL MEDICAL CENTER,Government,Department Of Health,REGION I (ILOCOS REGION),La Union,SAN FERNANDO,With License,Level 3,300.0,16.591233300000003,120.3178371,,13314000,0
101,POZORRUBIO COMMUNITY HOSPITAL,Government,Local Government Unit,REGION I (ILOCOS REGION),Pangasinan,POZORRUBIO,With License,Level 1,10.0,16.1066717,120.5401737,,15530000,0
102,UMINGAN COMMUNITY HOSPITAL,Government,Local Government Unit,REGION I (ILOCOS REGION),Pangasinan,UMINGAN,With License,Level 1,15.0,15.9275146,120.83980120000001,,15544000,0
103,CANDON GENERAL HOSPITAL,Private,,REGION I (ILOCOS REGION),Ilocos Sur,CANDON,With License,Level 1,,17.211313399999998,120.4567061,,12906000,0
104,LA UNION MEDICAL CENTER,Government,Local Government Unit,REGION I (ILOCOS REGION),La Union,AGOO,With License,Level 2,100.0,16.346667,120.364038,,13301000,0
105,DECENA GENERAL HOSPITAL,Private,,REGION I (ILOCOS REGION),Pangasinan,DAGUPAN,With License,Level 1,,16.0693504,120.3347334,,15518000,0
106,DINGRAS DISTRICT HOSPITAL,Government,Local Government Unit,REGION I (ILOCOS REGION),Ilocos Norte,DINGRAS,With License,Level 1,18.0,18.135648,120.677647,,12809000,0
107,CABA DISTRICT HOSPITAL,Government,Local Government Unit,REGION I (ILOCOS REGION),La Union,CABA,With License,Level 1,15.0,16.4298218,120.34688270000001,,13309000,0
108,MEDICAL CENTRUM DAGUPAN,Private,,REGION I (ILOCOS REGION),Pangasinan,DAGUPAN,With License,Level 2,42.0,16.0462104,120.35253770000001,,15518000,0
109,OUR LADY OF FATIMA MEDICAL CLINIC AND HOSPITAL,Private, ,REGION I (ILOCOS REGION),Ilocos Norte,LAOAG,Without License,0,,18.2021819,120.59231000000001,,12812000,0
110,BACNOTAN DISTRICT HOSPITAL,Government,Local Government Unit,REGION I (ILOCOS REGION),La Union,BACNOTAN,With License,Level 1,25.0,16.725758900000002,120.35072920000002,,13303000,0
111,ILOCOS SUR DISTRICT HOSPITAL - TAGUDIN,Government,Local Government Unit,REGION I (ILOCOS REGION),Ilocos Sur,TAGUDIN,With License,Level 1,50.0,16.9220012,120.46013119999999,,12933000,0
112,TAYUG FAMILY HOSPITAL,Private,,REGION I (ILOCOS REGION),Pangasinan,TAYUG,With License,Level 2,48.0,15.9941813,120.723041,,15543000,0
113,WESTERN PANGASINAN DISTRICT HOSPITAL,Government,Local Government Unit,REGION I (ILOCOS REGION),Pangasinan,ALAMINOS,With License,Level 1,75.0,16.1654429,119.98615759999998,,15503000,0
114,BALAOAN DISTRICT HOSPITAL,Government,Local Government Unit,REGION I (ILOCOS REGION),La Union,BALAOAN,With License,Level 1,25.0,16.7762214,120.4125226,,13305000,0
115,DR. BONIFACIA V. ALBANO MEMORIAL HOSPITAL,Private,,REGION I (ILOCOS REGION),Ilocos Norte,BACARRA,With License,Level 1,,18.2568503,120.61264440000001,,12802000,0
116,SPECIALIST GROUP HOSPITAL AND TRAUMA CENTER,Private,,REGION I (ILOCOS REGION),Pangasinan,DAGUPAN,With License,Level 2,80.0,16.030830599999998,120.3291023,,15518000,0
117,NAGUILIAN DISTRICT HOSPITAL,Government,Local Government Unit,REGION I (ILOCOS REGION),La Union,NAGUILIAN,With License,Level 1,25.0,16.5296753,120.39168909999998,,13311000,0
118,ILOCOS SUR DISTRICT HOSPITAL - NARVACAN,Government,Local Government Unit,REGION I (ILOCOS REGION),Ilocos Sur,NARVACAN,With License,Level 1,30.0,17.418314199999998,120.4697858,,12914000,0
119,CORPUZ CLINIC AND HOSPITAL,Private,,REGION I (ILOCOS REGION),Ilocos Sur,SINAIT,With License,Level 1,,17.8661825,120.4579854,,12930000,0
120,PANGASINAN CENTER FOR FAMILY MEDICINE HOSPITAL,Private, ,REGION I (ILOCOS REGION),Pangasinan,DAGUPAN,Without License,0,,16.033735999999998,120.331999,,15518000,0
121,NUESTRO SEÑOR STO. NIÑO HOSPITAL,Private,,REGION I (ILOCOS REGION),Pangasinan,BAYAMBANG,With License,Level 1,25.0,15.6893282,120.4148098,,15511000,0
122,MANAOAG COMMUNITY HOSPITAL,Government,Local Government Unit,REGION I (ILOCOS REGION),Pangasinan,MANAOAG,With License,Level 1,25.0,16.036129000000003,120.48312800000001,,15525000,0
123,BAYAMBANG DISTRICT HOSPITAL,Government,Local Government Unit,REGION I (ILOCOS REGION),Pangasinan,BAYAMBANG,With License,Level 1,50.0,15.808697699999998,120.443471,,15511000,0
124,"DR. MARCELO M. CHAN MEMORIAL HOSPITAL, INC.",Private,,REGION I (ILOCOS REGION),Pangasinan,ROSALES,With License,Level 1,,15.883614699999999,120.59851709999998,,15531000,0
125,ROSARIO DISTRICT HOSPITAL,Government,Local Government Unit,REGION I (ILOCOS REGION),La Union,ROSARIO,With License,Level 1,25.0,16.224774,120.4731156,,13313000,0
126,BLESSED FAMILY DOCTORS GENERAL HOSPITAL,Private,,REGION I (ILOCOS REGION),Pangasinan,SAN CARLOS,With License,Level 2,75.0,15.918894400000001,120.3559815,,15532000,0
127,"NAZARETH GENERAL HOSPITAL, INC.",Private,,REGION I (ILOCOS REGION),Pangasinan,DAGUPAN,With License,Level 2,60.0,16.040794599999998,120.339177,,15518000,0
128,"DAGUPAN DOCTORS-VILLAFLOR MEMORIAL HOSPITAL, INC.",Private,,REGION I (ILOCOS REGION),Pangasinan,DAGUPAN,With License,Level 2,,16.0375508,120.34681540000001,,15518000,0
129,ILOCOS SUR PROVINCIAL HOSPITAL - GABRIELA SILANG,Government,Local Government Unit,REGION I (ILOCOS REGION),Ilocos Sur,VIGAN,With License,Level 2,100.0,17.5535027,120.37974080000001,,12934000,0
130,"BETHANY HOSPITAL, INC.",Private,,REGION I (ILOCOS REGION),La Union,SAN FERNANDO,With License,Level 2,80.0,16.6142363,120.31752350000001,,13314000,0
131,JESUS NAZARENE GENERAL HOSPITAL,Private,,REGION I (ILOCOS REGION),Pangasinan,LINGAYEN,With License,Level 2,30.0,16.0145,120.232344,,15522000,0
132,METRO VIGAN MULTI-PURPOSE COOPERATIVE HOSPITAL,Private,,REGION I (ILOCOS REGION),Ilocos Sur,BANTAY,With License,Level 2,80.0,17.5807661,120.3867152,,12903000,0
133,CITY OF CANDON HOSPITAL,Government,Local Government Unit,REGION I (ILOCOS REGION),Ilocos Sur,CANDON,With License,Level 2,25.0,17.184891,120.445502,,12906000,0
134,URDANETA SACRED HEART HOSPITAL,Private,,REGION I (ILOCOS REGION),Pangasinan,URDANETA,With License,Level 2,128.0,15.980696,120.57120400000001,,15546000,0
135,"THE BLACK NAZARENE HOSPITAL, INC.",Private,,REGION I (ILOCOS REGION),Ilocos Norte,SAN NICOLAS,With License,Level 2,18.0,18.173886,120.59299740000002,,12820000,0
136,CICOSAT HOSPITAL,Private,,REGION I (ILOCOS REGION),La Union,SAN FERNANDO,With License,Level 1,,16.63775,120.311734,,13314000,0
137,LA UNION MEDICAL DIAGNOSTIC CENTER AND HOSPITAL,Private,,REGION I (ILOCOS REGION),La Union,SAN FERNANDO,With License,Level 1,18.0,16.614827,120.31549299999999,,13314000,0
138,ILOCOS SUR COOPERATIVE MEDICAL MISSION GROUP AND HOSPITAL,Private,,REGION I (ILOCOS REGION),Ilocos Sur,VIGAN,With License,Level 1,,17.558960199999998,120.38367749999999,,12934000,0
139,THE MEDICAL CITY PANGASINAN,Private,,REGION I (ILOCOS REGION),Pangasinan,DAGUPAN,With License,Level 2,75.0,16.0462825,120.3405206,,15518000,0
140,EASTERN PANGASINAN DISTRICT HOSPITAL,Government,Local Government Unit,REGION I (ILOCOS REGION),Pangasinan,TAYUG,With License,Level 1,75.0,16.0195269,120.74235890000001,,15543000,0
141,ASINGAN COMMUNITY HOSPITAL,Government,Local Government Unit,REGION I (ILOCOS REGION),Pangasinan,ASINGAN,With License,Level 1,15.0,16.0168366,120.67472009999999,,15506000,0
142,CANDON ST. MARTIN DE PORRES HOSPITAL,Private,,REGION I (ILOCOS REGION),Ilocos Sur,CANDON,With License,Level 1,44.0,17.192905,120.446905,,12906000,0
143,DOÑA JOSEFA E. MARCOS DISTRICT HOSPITAL,Government,Local Government Unit,REGION I (ILOCOS REGION),Ilocos Norte,MARCOS,With License,Level 1,25.0,18.0430241,120.6788532,,12813000,0
144,RANADA GENERAL HOSPITAL,Private,,REGION I (ILOCOS REGION),Ilocos Norte,LAOAG,With License,Level 1,20.0,18.1965887,120.5921338,,12812000,0
145,ESPINOZA-ROSARIO HOSPITAL,Private, ,REGION I (ILOCOS REGION),Pangasinan,MALASIQUI,Without License,0,,15.918001,120.416372,,15524000,0
146,PANGASINAN DOCTORS HOSPITAL,Private,,REGION I (ILOCOS REGION),Pangasinan,SAN CARLOS,With License,Level 2,37.0,15.939963,120.34543190000001,,15532000,0
147,SUERO GENERAL HOSPITAL,Private,,REGION I (ILOCOS REGION),Ilocos Sur,CABUGAO,With License,Level 1,34.0,17.7937495,120.4543939,,12905000,0
148,BOLINAO COMMUNITY HOSPITAL,Government,Local Government Unit,REGION I (ILOCOS REGION),Pangasinan,BOLINAO,With License,Level 1,25.0,16.2678271,119.87884199999999,,15514000,0
149,KARMELLI CLINIC AND HOSPITAL,Private,,REGION I (ILOCOS REGION),Ilocos Norte,LAOAG,With License,Level 1,,18.192057000000002,120.61044550000001,,12812000,0
150,NORTHERN LUZON ADVENTIST HOSPITAL,Private,,REGION I (ILOCOS REGION),Pangasinan,SISON,With License,Level 1,18.0,16.1933585,120.5151916,,15541000,0
151,MBP - BLESSED TRINITY GENERAL HOSPITAL,Private,,REGION I (ILOCOS REGION),Pangasinan,MANGATAREM,With License,Level 1,18.0,15.795905300000001,120.28779080000001,,15527000,0
152,NORTHSIDE DOCTORS HOSPITAL,Private,,REGION I (ILOCOS REGION),Ilocos Sur,BANTAY,With License,Level 2,100.0,17.603414899999997,120.39375449999999,,12903000,0
153,LASAM DISTRICT HOSPITAL,Government,Local Government Unit,REGION II (CAGAYAN VALLEY),Cagayan,LASAM,With License,Level 1,25.0,18.0634751,121.6096294,,21517000,0
154,MATILDE A. OLIVAS DISTRICT HOSPITAL,Government,Local Government Unit,REGION II (CAGAYAN VALLEY),Cagayan,CAMALANIUGAN,With License,Level 1,25.0,18.2504996,121.6869406,,21510000,0
155,DUMLAO HOSPITAL,Private,,REGION II (CAGAYAN VALLEY),Isabela,ROXAS,With License,Level 1,15.0,17.120383,121.621117,,23126000,0
156,DR. VICTOR S. VILLAROMAN MEMORIAL HOSPITAL,Private,,REGION II (CAGAYAN VALLEY),Isabela,ILAGAN,With License,Level 1,17.0,17.1462961,121.8903416,,23114000,0
157,CAUAYAN MEDICAL SPECIALISTS HOSPITAL,Private,,REGION II (CAGAYAN VALLEY),Isabela,CAUAYAN,With License,Level 1,95.0,16.936217499999998,121.77034270000001,,23108000,0
158,LYCEUM OF APARRI HOSPITAL,Private,,REGION II (CAGAYAN VALLEY),Cagayan,APARRI,With License,Level 1,36.0,18.346760800000002,121.6432499,,21505000,0
159,GOD'S WILL MEDICAL HOSPITAL,Private,,REGION II (CAGAYAN VALLEY),Isabela,CAUAYAN,With License,Level 1,12.0,16.9383297,121.769524,,23108000,0
160,PADRON-TIBIO MEDICAL CLINIC,Private,,REGION II (CAGAYAN VALLEY),Isabela,AURORA,With License,Level 1,16.0,16.991480399999997,121.63647659999998,,23103000,0
161,TUGUEGARAO CITY PEOPLES GENERAL HOSPITAL,Government,Local Government Unit,REGION II (CAGAYAN VALLEY),Cagayan,TUGUEGARAO,With License,Level 1,68.0,17.612887100000002,121.72940559999999,,21529000,0
162,"ADVENTIST HOSPITAL - SANTIAGO CITY, INC.",Private,,REGION II (CAGAYAN VALLEY),Isabela,SANTIAGO,With License,Level 2,50.0,16.6972697,121.56694809999999,,23135000,0
163,MADDELA DISTRICT HOSPITAL,Government,Local Government Unit,REGION II (CAGAYAN VALLEY),Quirino,MADDELA,With License,Level 1,39.0,16.3286801,121.65894779999999,,25704000,0
164,"CHARLES W. SELBY MEMORIAL HOSPITAL, INC.",Private,,REGION II (CAGAYAN VALLEY),Cagayan,APARRI,With License,Level 1,35.0,18.35602,121.636121,,21505000,0
165,NUESTRA SEÑORA DE PIAT DISTRICT HOSPITAL,Government,Local Government Unit,REGION II (CAGAYAN VALLEY),Cagayan,PIAT,With License,Level 1,40.0,17.7755594,121.50140800000001,,21520000,0
166,CAGAYAN VALLEY MEDICAL CENTER,Government,Department Of Health,REGION II (CAGAYAN VALLEY),Cagayan,TUGUEGARAO,With License,Level 3,500.0,17.656567300000003,121.7466281,,21529000,0
167,"CALLANG GENERAL HOSPITAL AND MEDICAL CENTER, INC.",Private,,REGION II (CAGAYAN VALLEY),Isabela,SANTIAGO,With License,Level 2,,16.6925894,121.55043559999999,,23135000,0
168,"JAVONILLO HOSPITAL, INC.",Private,,REGION II (CAGAYAN VALLEY),Isabela,CORDON,With License,Level 1,17.0,16.67142,121.46187900000001,,23109000,0
169,MANUEL A. ROXAS DISTRICT HOSPITAL,Government,Local Government Unit,REGION II (CAGAYAN VALLEY),Isabela,ROXAS,With License,Level 1,50.0,17.085697600000003,121.61739340000001,,23126000,0
170,REGION II TRAUMA AND MEDICAL CENTER,Government,Department Of Health,REGION II (CAGAYAN VALLEY),Nueva Vizcaya,BAYOMBONG,With License,Level 3,500.0,16.4830758,121.13427759999999,,25005000,0
171,DAYOS-PASCUAL MEDICAL CLINIC,Private,,REGION II (CAGAYAN VALLEY),Isabela,ROXAS,With License,Level 1,17.0,17.121903,121.620147,,23126000,0
172,LT. TIDANG MEMORIAL HOSPITAL,Government,Local Government Unit,REGION II (CAGAYAN VALLEY),Nueva Vizcaya,KAYAPA,With License,Level 1,15.0,16.3616919,120.88879109999999,,25010000,0
173,ECHAGUE DISTRICT HOSPITAL,Government,Local Government Unit,REGION II (CAGAYAN VALLEY),Isabela,ECHAGUE,With License,Level 1,25.0,16.6897496,121.64366159999999,,23112000,0
174,SOUTHERN ISABELA MEDICAL CENTER,Government,Department Of Health,REGION II (CAGAYAN VALLEY),Isabela,SANTIAGO,With License,Level 3,350.0,16.680089000000002,121.546748,,23135000,0
175,ALFONSO PONCE ENRILE MEMORIAL HOSPITAL,Government,Local Government Unit,REGION II (CAGAYAN VALLEY),Cagayan,GONZAGA,With License,Level 1,25.0,18.2577872,121.99689450000001,,21514000,0
176,PUYAOAN GENERAL HOSPITAL,Private,,REGION II (CAGAYAN VALLEY),Cagayan,CAMALANIUGAN,With License,Level 1,12.0,18.263558,121.68733300000001,,21510000,0
177,MANANGO HOSPITAL,Private,,REGION II (CAGAYAN VALLEY),Isabela,ALICIA,With License,Level 1,14.0,16.7732,121.698775,,23101000,0
178,"SOLLER GENERAL HOSPITAL, INC.",Private,,REGION II (CAGAYAN VALLEY),Isabela,ROXAS,With License,Level 1,20.0,17.119598999999997,121.62193799999999,,23126000,0
179,NUEVA VIZCAYA PROVINCIAL HOSPITAL,Government,Local Government Unit,REGION II (CAGAYAN VALLEY),Nueva Vizcaya,BAMBANG,With License,Level 1,173.0,16.3703871,121.0996081,,25004000,0
180,DR. ESTER R. GARCIA MEDICAL CENTER,Private,,REGION II (CAGAYAN VALLEY),Isabela,CAUAYAN,With License,Level 1,87.0,16.935639000000002,121.762703,,23108000,0
181,DUPAX DISTRICT HOSPITAL,Government,,REGION II (CAGAYAN VALLEY),Nueva Vizcaya,DUPAX DEL NORTE,With License,Level 1,17.0,16.3069594,121.10090020000001,,25007000,0
182,BALLESTEROS DISTRICT HOSPITAL,Government,Local Government Unit,REGION II (CAGAYAN VALLEY),Cagayan,BALLESTEROS,With License,Level 1,25.0,18.417719,121.5010683,,21507000,0
183,DR. DOMINGO S. DE LEON GENERAL HOSPITAL,Private,,REGION II (CAGAYAN VALLEY),Cagayan,TUGUEGARAO,With License,Level 1,32.0,17.6102772,121.72825490000001,,21529000,0
184,FLORES MEMORIAL MEDICAL CENTER,Private,,REGION II (CAGAYAN VALLEY),Isabela,SANTIAGO,With License,Level 1,40.0,16.69031,121.550979,,23135000,0
185,HOLY INFANT HOSPITAL OF TUGUEGARAO INC.,Private,,REGION II (CAGAYAN VALLEY),Cagayan,TUGUEGARAO,With License,Level 1,50.0,17.615735600000004,121.7258768,,21529000,0
186,MEDICAL MISSION GROUP HOSPITAL AND HEALTH SERVICES COOPERATIVE,Private,,REGION II (CAGAYAN VALLEY),Nueva Vizcaya,SOLANO,With License,Level 1,20.0,16.516680599999997,121.1783423,,25013000,0
187,NORTHERN CAGAYAN DISTRICT HOSPITAL,Government,Local Government Unit,REGION II (CAGAYAN VALLEY),Cagayan,SANCHEZ-MIRA,With License,0,17.0,18.605173899999997,121.1724105,,21522000,0
188,CABATUAN FAMILY CLINIC AND HOSPITAL,Private,,REGION II (CAGAYAN VALLEY),Isabela,CABATUAN,With License,Level 1,20.0,16.9545366,121.66998500000001,,23107000,0
189,LUCAS-PAGUILA MEDICAL CLINIC AND HOSPITAL,Private,,REGION II (CAGAYAN VALLEY),Isabela,ALICIA,With License,Level 1,39.0,16.783321,121.699729,,23101000,0
190,"ST. PAUL HOSPITAL OF TUGUEGARAO INC,",Private,,REGION II (CAGAYAN VALLEY),Cagayan,TUGUEGARAO,With License,Level 2,250.0,17.614047,121.707546,,21529000,0
191,TUAO DISTRICT HOSPITAL,Government,Local Government Unit,REGION II (CAGAYAN VALLEY),Cagayan,TUAO,With License,Level 1,25.0,17.750084,121.4516124,,21528000,0
192,BATANES GENERAL HOSPITAL,Government,Department Of Health,REGION II (CAGAYAN VALLEY),Batanes,BASCO,With License,Level 1,75.0,20.450086399999996,121.9704646,,20901000,0
193,ISABELA DOCTORS GENERAL HOSPITAL,Private,,REGION II (CAGAYAN VALLEY),Isabela,ILAGAN,With License,Level 1,79.0,17.1179786,121.86346599999999,,23114000,0
194,SAN MARIANO COMMUNITY HOSPITAL,Government,Local Government Unit,REGION II (CAGAYAN VALLEY),Isabela,SAN MARIANO,With License,Level 1,10.0,16.9840274,122.00121409999998,,23131000,0
195,TOMAS-CACAL MEDICAL CLINIC AND HOSPITAL,Private,,REGION II (CAGAYAN VALLEY),Isabela,ALICIA,With License,Level 1,30.0,16.7785538,121.6951878,,23101000,0
196,PLTCI-LUIS A. TIAM MEDICAL CENTER,Private,,REGION II (CAGAYAN VALLEY),Nueva Vizcaya,SOLANO,With License,Level 2,60.0,16.5347514,121.22442109999999,,25013000,0
197,FR. GERRY FILIPPETTO MEMORIAL FOUNDATION HOSPITAL,Private,,REGION II (CAGAYAN VALLEY),Cagayan,SANTA ANA,With License,Level 1,17.0,14.5773483,121.0115303,,21523000,0
198,SABTANG COMMUNITY HOSPITAL,Government,Local Government Unit,REGION II (CAGAYAN VALLEY),Batanes,SABTANG,Without License,0,,20.305439899999996,121.84487450000002,,20905000,0
199,QUIRINO PROVINCIAL MEDICAL CENTER,Government,Local Government Unit,REGION II (CAGAYAN VALLEY),Quirino,CABARROGUIS,With License,Level 1,100.0,16.5149657,121.5378159,,25702000,0
200,PROSPERO G. BELLO INTEGRATED COMMUNITY HOSPITAL,Government,Local Government Unit,REGION II (CAGAYAN VALLEY),Isabela,JONES,With License,Level 1,10.0,16.5695633,121.69874740000002,,23115000,0
201,"DE VERA MEDICAL CENTER, INC.",Private,,REGION II (CAGAYAN VALLEY),Isabela,SANTIAGO,With License,Level 2,50.0,16.6949365,121.55412079999999,,23135000,0
202,CAUAYAN DISTRICT HOSPITAL,Government,Local Government Unit,REGION II (CAGAYAN VALLEY),Isabela,CAUAYAN,With License,Level 1,50.0,9.9718938,122.587359,,23108000,0
203,MILAGROS ALBANO DISTRICT HOSPITAL,Government,Local Government Unit,REGION II (CAGAYAN VALLEY),Isabela,CABAGAN,With License,Level 1,50.0,17.425279999999997,121.77831850000001,,23106000,0
204,A.M. YUMENA GENERAL HOSPITAL INC.,Private,,REGION II (CAGAYAN VALLEY),Isabela,ROXAS,With License,Level 1,14.0,17.1199181,121.6154431,,23126000,0
205,APARRI PROVINCIAL HOSPITAL,Government,Local Government Unit,REGION II (CAGAYAN VALLEY),Cagayan,APARRI,With License,Level 1,50.0,18.356807,121.64198400000001,,21505000,0
206,GOV. FAUSTINO N. DY SR. MEMORIAL HOSPITAL,Government,Local Government Unit,REGION II (CAGAYAN VALLEY),Isabela,ILAGAN,With License,Level 1,100.0,17.132185999999997,121.868816,,23114000,0
207,DR. ATANACIO T. DAYRIT JR. MEDICAL HOSPITAL,Private, ,REGION II (CAGAYAN VALLEY),Isabela,CABATUAN,Without License,0,,16.9532825,121.6707284,,23107000,0
208,"DR. RONALD P. GUZMAN MEDICAL CENTER, INC.",Private,,REGION II (CAGAYAN VALLEY),Cagayan,TUGUEGARAO,With License,Level 2,100.0,17.6495406,121.75589409999999,,21529000,0
209,NEW SAMARITAN MEDICAL AND PEDIATRIC CLINIC,Private, ,REGION II (CAGAYAN VALLEY),Isabela,SAN MATEO,Without License,0,,16.8848,121.588168,,23132000,0
210,RENMAR SPECIALISTS HOSPITAL,Private,,REGION II (CAGAYAN VALLEY),Isabela,SANTIAGO,With License,Level 1,10.0,16.687268,121.5427797,,23135000,0
211,SAQUING'S CLINIC,Private, ,REGION II (CAGAYAN VALLEY),Nueva Vizcaya,BAMBANG,Without License,0,,16.384616,121.10623100000001,,25004000,0
212,ISABELA UNITED DOCTORS MEDICAL CENTER,Private,,REGION II (CAGAYAN VALLEY),Isabela,CAUAYAN,With License,Level 2,,16.9487993,121.7717422,,23108000,0
213,RICAFORT CLINIC,Private, ,REGION II (CAGAYAN VALLEY),Isabela,SAN MATEO,Without License,0,,16.8796241,121.58480279999999,,23132000,0
214,INDIGINEOUS PEOPLES HOSPITAL FOUNDATION OF THE DIOCESE OF BAYOMBONG INCORPORATED,Private,,REGION II (CAGAYAN VALLEY),Nueva Vizcaya,ARITAO,With License,Level 1,15.0,16.3040466,121.0415871,,25002000,0
215,"GRUPO MEDICO DE DIOS, INC.",Private,,REGION II (CAGAYAN VALLEY),Cagayan,CAMALANIUGAN,With License,Level 2,33.0,18.260718,121.703098,,21510000,0
216,DIVINE MERCY WELLNESS CENTER,Private,,REGION II (CAGAYAN VALLEY),Cagayan,TUGUEGARAO,With License,Level 2,100.0,17.61101,121.727006,,21529000,0
217,"ISABELA SOUTH SPECIALISTS HOSPITAL, INC.",Private,,REGION II (CAGAYAN VALLEY),Isabela,ECHAGUE,With License,Level 1,75.0,16.696089999999998,121.64232920000002,,23112000,0
218,"SAN MATEO MULTICARE HOSPITAL, INC.",Private,,REGION II (CAGAYAN VALLEY),Isabela,SAN MATEO,With License,Level 1,20.0,16.879251999999997,121.58671299999999,,23132000,0
219,SANTIAGO MEDICAL CITY,Private,,REGION II (CAGAYAN VALLEY),Isabela,SANTIAGO,With License,Level 2,109.0,16.7282833,121.5498456,,23135000,0
220,APAYAO CAGAYAN MEDICAL CENTER,Private,,REGION II (CAGAYAN VALLEY),Cagayan,ABULUG,With License,Level 1,50.0,18.345663300000002,121.40107979999999,,21501000,0
221,PROVIDERS MULTI-PURPOSE COOPERATIVE MEDICAL CENTER,Private,,REGION II (CAGAYAN VALLEY),Isabela,NAGUILIAN,With License,Level 1,92.0,17.0215729,121.85361440000001,,23120000,0
222,"SALUBRIS, INC.",Private,,REGION II (CAGAYAN VALLEY),Nueva Vizcaya,SOLANO,With License,Level 2,100.0,16.5219976,121.1936422,,25013000,0
223,"DR. YANGA'S HOSPITAL, INC.",Private,,REGION III (CENTRAL LUZON),Bulacan,BOCAUE,With License,Level 1,,14.796463399999999,120.92487690000002,,31404000,0
224,DIOSDADO P. MACAPAGAL MEMORIAL HOSPITAL,Government,Local Government Unit,REGION III (CENTRAL LUZON),Pampanga,GUAGUA,With License,Level 1,75.0,14.9854777,120.62261940000002,,35407000,0
225,DR. EMIGDIO C. CRUZ SR. MEMORIAL HOSPITAL,Government,Local Government Unit,REGION III (CENTRAL LUZON),Pampanga,ARAYAT,With License,Level 1,25.0,15.1643221,120.7780298,,35403000,0
226,GAPAN DISTRICT HOSPITAL,Government,Local Government Unit,REGION III (CENTRAL LUZON),Nueva Ecija,GAPAN,With License,Level 1,25.0,15.291153699999999,120.9507918,,34908000,0
227,TARLAC PROVINCIAL HOSPITAL,Government,Local Government Unit,REGION III (CENTRAL LUZON),Tarlac,TARLAC,With License,Level 3,408.0,15.4907929,120.5915393,,36916000,0
228,JOSE B. LINGAD MEMORIAL REGIONAL HOSPITAL,Government,Department Of Health,REGION III (CENTRAL LUZON),Pampanga,SAN FERNANDO,With License,Level 3,250.0,15.034531,120.68465790000002,,35416000,0
229,JAMES L. GORDON MEMORIAL HOSPITAL,Government,Local Government Unit,REGION III (CENTRAL LUZON),Zambales,OLONGAPO,With License,Level 3,270.0,14.8272858,120.2802413,,37107000,0
230,DR. PAULINO J. GARCIA MEMORIAL RESEARCH AND MEDICAL CENTER,Government,Department Of Health,REGION III (CENTRAL LUZON),Nueva Ecija,CABANATUAN,With License,Level 3,400.0,15.489413699999998,120.9727529,,34903000,0
231,ED & TITA CRUZ MATERNITY AND SURGICAL HOSPITAL,Private, ,REGION III (CENTRAL LUZON),Bulacan,SANTA MARIA,Without License,0,,37.069285799999996,-94.4935676,,31423000,0
232,SAN DIEGO GENERAL HOSPITAL,Private, ,REGION III (CENTRAL LUZON),Bulacan,PLARIDEL,Without License,0,,14.886961,120.86663600000001,,31417000,0
233,APALIT DOCTORS HOSPITAL INC.,Private,,REGION III (CENTRAL LUZON),Pampanga,APALIT,With License,Level 1,,14.9524,120.76378600000001,,35402000,0
234,ARAYAT MEDICAL AND MATERNITY HOSPITAL,Private, ,REGION III (CENTRAL LUZON),Pampanga,ARAYAT,Without License,0,,15.165920999999999,120.78021499999998,,35403000,0
235,NODADO GENERAL HOSPITAL,Private,,REGION III (CENTRAL LUZON),Bulacan,NORZAGARAY,With License,Level 1,15.0,14.8582899,121.08452390000001,,31413000,0
236,PLARIDEL COUNTY HOSPITAL,Private, ,REGION III (CENTRAL LUZON),Bulacan,PLARIDEL,With License,0,,14.88006,120.864429,,31417000,0
237,SANTISSIMA TRINIDAD HOSPITAL,Private,,REGION III (CENTRAL LUZON),Bulacan,MALOLOS,With License,Level 1,15.0,14.870999999999999,120.82139,,31410000,0
238,MARY THE QUEEN MATERNITY AND GENERAL HOSPITAL FOUNDATION INC.,Private, ,REGION III (CENTRAL LUZON),Bulacan,PLARIDEL,With License,0,,14.885779000000001,120.8447487,,31417000,0
239,DIVINE MERCY HOSPITAL,Private,,REGION III (CENTRAL LUZON),Tarlac,BAMBAN,With License,Level 1,,15.271759900000001,120.560799,,36902000,0
240,GONZALES GENERAL HOSPITAL,Private,,REGION III (CENTRAL LUZON),Nueva Ecija,SAN LEONARDO,With License,Level 1,,15.366776999999999,120.94043400000001,,34927000,0
241,SALVADOR GENERAL HOSPITAL,Private,,REGION III (CENTRAL LUZON),Tarlac,CAMILING,With License,Level 1,20.0,15.690338199999998,120.40578319999999,,36903000,0
242,THE LORD'S HOSPITAL,Private,,REGION III (CENTRAL LUZON),Bulacan,MEYCAUAYAN,With License,Level 1,,14.737159,120.95792800000001,,31412000,0
243,ROMEL CRUZ HOSPITAL,Private,,REGION III (CENTRAL LUZON),Bulacan,MALOLOS,With License,Level 1,32.0,14.811002100000001,120.8424096,,31410000,0
244,"ROSARIO MEMORIAL HOSPITAL OF GUAGUA, INC.",Private,,REGION III (CENTRAL LUZON),Pampanga,GUAGUA,With License,Level 1,30.0,14.9666682,120.63177959999999,,35407000,0
245,RIDON'S ST. JUDE MEDICAL CENTER,Private,,REGION III (CENTRAL LUZON),Zambales,OLONGAPO,With License,Level 1,39.0,14.836203,120.286596,,37107000,0
246,"CABIAO GENERAL HOSPITAL, INC.",Private,,REGION III (CENTRAL LUZON),Nueva Ecija,CABIAO,With License,Level 1,,15.260541,120.86483,,34904000,0
247,STA. CRUZ HOSPITAL,Private,,REGION III (CENTRAL LUZON),Bulacan,CALUMPIT,With License,Level 1,,14.917075,120.76698700000001,,31407000,0
248,"RUGAY GENERAL HOSPITAL, INC.",Private,,REGION III (CENTRAL LUZON),Bulacan,BALIUAG,With License,Level 1,53.0,14.968519199999998,120.913793,,31403000,0
249,DEE HWA LIONG FOUNDATION MEDICAL CENTER,Private, ,REGION III (CENTRAL LUZON),Pampanga,MABALACAT,Without License,0,,15.177428699999998,120.6236571,,35409000,0
250,DR. GLORIA D. LACSON GENERAL HOSPITAL,Private,,REGION III (CENTRAL LUZON),Nueva Ecija,SAN LEONARDO,With License,Level 1,,15.3179682,120.9371682,,34927000,0
251,MENDOZA GENERAL HOSPITAL,Private,,REGION III (CENTRAL LUZON),Bulacan,SANTA MARIA,With License,Level 1,50.0,14.821024,120.963099,,31423000,0
252,"NUEVA ECIJA GOOD SAMARITAN HEALTH CARE SYSTEM, INC. (EXT.)",Private,,REGION III (CENTRAL LUZON),Nueva Ecija,GAPAN,With License,Level 2,67.0,15.306861999999999,120.94615800000001,,34908000,0
253,RAMOS GENERAL HOSPITAL,Private,,REGION III (CENTRAL LUZON),Tarlac,TARLAC,With License,Level 2,90.0,15.484982999999998,120.5931144,,36916000,0
254,NUEVA ECIJA DOCTORS HOSPITAL INC.,Private,,REGION III (CENTRAL LUZON),Nueva Ecija,CABANATUAN,With License,Level 3,133.0,15.457642000000002,120.94908840000001,,34903000,0
255,BATAAN GENERAL HOSPITAL AND MEDICAL CENTER,Government,Department Of Health,REGION III (CENTRAL LUZON),Bataan,BALANGA,With License,Level 3,214.0,14.678530499999999,120.53042830000001,,30803000,0
256,BULACAN MEDICAL MISSION GROUP PHARMACY AND HOSPITAL - TURO BRANCH,Private,,REGION III (CENTRAL LUZON),Bulacan,BOCAUE,With License,Level 1,,14.80761,120.9406385,,31404000,0
257,CALUMPIT DISTRICT HOSPITAL,Government,Local Government Unit,REGION III (CENTRAL LUZON),Bulacan,CALUMPIT,With License,Level 1,25.0,14.907497,120.77108500000001,,31407000,0
258,DOMINGO B. FLORES DISTRICT HOSPITAL,Government,Local Government Unit,REGION III (CENTRAL LUZON),Pampanga,MACABEBE,With License,Level 1,25.0,14.893177,120.71721200000002,,35410000,0
259,DR. EUTIQUIO LL. ATANACIO JR. MEMORIAL HOSPITAL,Private,Local Government Unit,REGION III (CENTRAL LUZON),Tarlac,CONCEPCION,With License,Level 1,,15.34114,120.688884,,36905000,0
260,ROGACIANO M. MERCADO MEMORIAL HOSPITAL,Government,Local Government Unit,REGION III (CENTRAL LUZON),Bulacan,SANTA MARIA,With License,Level 1,150.0,14.818848999999998,120.95976100000001,,31423000,0
261,MUÑOZ CLINIC,Private, ,REGION III (CENTRAL LUZON),Pampanga,SAN FERNANDO,Without License,0,,15.019675,120.700216,,35416000,0
262,MAHESECO MULTIPURPOSE COOPERATIVE,Private,,REGION III (CENTRAL LUZON),Bataan,MARIVELES,With License,Level 1,12.0,14.436909,120.487908,,30807000,0
263,E.D. LIM MATERNITY AND GENERAL HOSPITAL,Private,,REGION III (CENTRAL LUZON),Pampanga,APALIT,With License,Level 1,17.0,14.944587699999998,120.7580315,,35402000,0
264,"HOLY FAMILY MEDICAL CENTER, INC.",Private,,REGION III (CENTRAL LUZON),Pampanga,ANGELES,With License,Level 1,,15.1400254,120.59432360000001,,35401000,0
265,HEART OF JESUS HOSPITAL,Private,,REGION III (CENTRAL LUZON),Nueva Ecija,SAN JOSE,With License,Level 1,,15.795551800000002,120.9909096,,34926000,0
266,SAN PASCUAL BAYLON MATERNITY AND GENERAL HOSPITAL,Private,,REGION III (CENTRAL LUZON),Bulacan,PAOMBONG,With License,Level 1,21.0,14.837323000000001,120.78945300000001,,31416000,0
267,DR. ANDRES LUCIANO JR. MEMORIAL HOSPITAL,Government,Local Government Unit,REGION III (CENTRAL LUZON),Pampanga,MAGALANG,With License,Level 1,25.0,15.2166188,120.66971629999999,,35411000,0
268,MLY MEDICAL CENTER FOUNDATION INC,Private,,REGION III (CENTRAL LUZON),Pampanga,ANGELES,Without License,0,,15.144914300000002,120.59521770000002,,35401000,0
269,ORANI DISTRICT HOSPITAL,Government,Local Government Unit,REGION III (CENTRAL LUZON),Bataan,ORANI,With License,Level 1,45.0,14.7900589,120.5354456,,30809000,0
270,"IMMACULATE CONCEPTION MEDICAL CENTER OF CENTRAL LUZON, INC",Private,,REGION III (CENTRAL LUZON),Nueva Ecija,CABANATUAN,With License,Level 2,,15.468626800000001,120.9632699,,34903000,0
271,BASA AIRBASE HOSPITAL,Government,Department of National Defense,REGION III (CENTRAL LUZON),Pampanga,FLORIDABLANCA,With License,Level 1,25.0,14.979641399999998,120.5013703,,35406000,0
272,PADRIGUILAN'S MATERNITY AND MEDICAL CLINIC,Private, ,REGION III (CENTRAL LUZON),Bulacan,MEYCAUAYAN,Without License,0,,14.723841,120.95976090000002,,31412000,0
273,"GUIGUINTO POLYMEDIC HOSPITAL, INC.",Private,,REGION III (CENTRAL LUZON),Bulacan,GUIGUINTO,With License,Level 1,27.0,14.840881,120.861407,,31408000,0
274,MARIVELES MENTAL HOSPITAL,Government,Department Of Health,REGION III (CENTRAL LUZON),Bataan,MARIVELES,With License,Custodial Psychiatric Care,,14.430784,120.48408700000002,,30807000,0
275,"MATEO'S DIAGNOSTIC CLINIC AND GENERAL HOSPITAL, INC.",Private,,REGION III (CENTRAL LUZON),Bulacan,SANTA MARIA,With License,Level 1,40.0,14.809495000000002,120.947571,,31423000,0
276,UNITED BALAGTAS DOCTORS HOSPITAL CORPORATION,Private,,REGION III (CENTRAL LUZON),Bulacan,BALAGTAS,With License,Level 1,35.0,14.8186179,120.9041869,,31402000,0
277,EMILIO G. PEREZ MEMORIAL HOSPITAL,Government,Local Government Unit,REGION III (CENTRAL LUZON),Bulacan,HAGONOY,With License,Level 1,50.0,14.836689999999999,120.733577,,31409000,0
278,M. NAPEÑAS MULTISPECIALTY HOSPITAL,Private,,REGION III (CENTRAL LUZON),Tarlac,CONCEPCION,With License,Level 1,24.0,15.3201307,120.65755520000002,,36905000,0
279,GEORGE DEWEY MEDICAL AND WELLNESS CENTER,Private,,REGION III (CENTRAL LUZON),Zambales,OLONGAPO,With License,Level 2,,14.774640300000002,120.30772890000001,,37107000,0
280,ALFEROS HOSPITAL,Private, ,REGION III (CENTRAL LUZON),Zambales,OLONGAPO,Without License,0,,14.835548999999999,120.29007299999999,,37107000,0
281,SNH BUSTOS CORPORATION,Private,,REGION III (CENTRAL LUZON),Bulacan,BUSTOS,With License,Level 1,40.0,14.9015946,120.9198037,,31406000,0
282,TALAVERA GENERAL HOSPITAL,Government,Department Of Health,REGION III (CENTRAL LUZON),Nueva Ecija,TALAVERA,With License,Level 1,10.0,15.584407999999998,120.919953,,34930000,0
283,EDUARDO L. JOSON MEMORIAL HOSPITAL,Government,Local Government Unit,REGION III (CENTRAL LUZON),Nueva Ecija,CABANATUAN,With License,Level 1,180.0,15.504444400000002,120.97440060000001,,34903000,0
284,"LEONARDO B. MANABAT SR. HOSPITAL, INC.",Private,,REGION III (CENTRAL LUZON),Pampanga,SANTO TOMAS,With License,Level 1,15.0,15.009865,120.71070300000001,,35421000,0
285,MALOLOS SAN ILDEFONSO COUNTY HOSPITAL,Private,Local Government Unit,REGION III (CENTRAL LUZON),Bulacan,MALOLOS,With License,Level 1,9.0,14.8406807,120.80118600000002,,31410000,0
286,NORZAGARAY MUNICIPAL HOSPITAL,Government,Local Government Unit,REGION III (CENTRAL LUZON),Bulacan,NORZAGARAY,With License,Level 1,25.0,14.9041856,121.04206540000001,,31413000,0
287,CONCEPCION DISTRICT HOSPITAL,Government,Local Government Unit,REGION III (CENTRAL LUZON),Tarlac,CONCEPCION,With License,Level 1,50.0,15.329835999999998,120.646791,,36905000,0
288,"GUIMBA GENERAL HOSPITAL, INC,",Private,,REGION III (CENTRAL LUZON),Nueva Ecija,GUIMBA,With License,Level 1,,15.661762300000003,120.76351329999999,,34911000,0
289,LINGAP GENERAL HOSPITAL,Private,,REGION III (CENTRAL LUZON),Pampanga,ARAYAT,With License,Level 1,,15.154241,120.7706207,,35403000,0
290,ROMANA PANGAN DISTRICT HOSPITAL,Government,Local Government Unit,REGION III (CENTRAL LUZON),Pampanga,FLORIDABLANCA,With License,Level 1,50.0,14.9901133,120.5115368,,35406000,0
291,JOSE C. PAYUMO JR. MEMORIAL HOSPITAL,Government,Local Government Unit,REGION III (CENTRAL LUZON),Bataan,DINALUPIHAN,With License,Level 1,100.0,14.865328,120.4609135,,30804000,0
292,"COMMUNITY MEDICAL CLINIC OF BALAGTAS, CO.",Private, ,REGION III (CENTRAL LUZON),Bulacan,BALAGTAS,Without License,0,,14.826889000000001,120.90505300000001,,31402000,0
293,GREGORIO DEL PILAR DISTRICT HOSPITAL,Government,Local Government Unit,REGION III (CENTRAL LUZON),Bulacan,BULAKAN,With License,Level 1,25.0,14.792851999999998,120.8798932,,31405000,0
294,"ANGELES UNIVERSITY FOUNDATION MEDICAL CENTER, INC.",Private,,REGION III (CENTRAL LUZON),Pampanga,ANGELES,With License,Level 3,170.0,15.144914300000002,120.59521770000002,,35401000,0
295,"MARCELO HOSPITAL OF BALIWAG, INC.",Private,Local Government Unit,REGION III (CENTRAL LUZON),Bulacan,BALIUAG,With License,Level 1,27.0,14.9559644,120.9018496,,31403000,0
296,DR. AMANDO L. GARCIA MEDICAL CENTER,Private,,REGION III (CENTRAL LUZON),Pampanga,ANGELES,With License,Level 2,,15.1422383,120.5890983,,35401000,0
297,JECSONS MEDICAL CENTER,Private,,REGION III (CENTRAL LUZON),Tarlac,TARLAC,With License,Level 2,,15.4909959,120.59748859999999,,36916000,0
298,OFELIA L. MENDOZA MATERNITY AND GENERAL HOSPITAL,Private,,REGION III (CENTRAL LUZON),Bulacan,MALOLOS,With License,Level 1,12.0,14.8674009,120.8212487,,31410000,0
299,STA. CLARA DE MONTEFALCO MEDICAL CENTER,Private,,REGION III (CENTRAL LUZON),Bulacan,MEYCAUAYAN,With License,Level 1,,14.749062900000002,120.9716435,,31412000,0
300,BATAAN DOCTOR'S HOSPITAL AND MEDICAL CENTER,Private,,REGION III (CENTRAL LUZON),Bataan,BALANGA,With License,Level 1,,14.682839000000001,120.5427423,,30803000,0
301,OSPITAL NG LUNGSOD NG SAN JOSE DEL MONTE,Government,Local Government Unit,REGION III (CENTRAL LUZON),Bulacan,SAN JOSE DEL MONTE,With License,Level 1,90.0,14.854419,121.05732330000001,,31420000,0
302,ASCCOM MEDICAL CENTER,Private,,REGION III (CENTRAL LUZON),Pampanga,APALIT,With License,Level 1,,14.9537085,120.76769420000001,,35402000,0
303,SAN ANTONIO DISTRICT HOSPITAL,Government,Local Government Unit,REGION III (CENTRAL LUZON),Nueva Ecija,SAN ANTONIO,With License,Level 1,50.0,15.3218327,120.8785987,,34924000,0
304,BATAAN PENINSULA MEDICAL CENTER,Private,,REGION III (CENTRAL LUZON),Bataan,DINALUPIHAN,With License,Level 1,,14.868824499999999,120.46082379999999,,30804000,0
305,AIRFORCE CITY HOSPITAL,Government,Department of National Defense,REGION III (CENTRAL LUZON),Pampanga,ANGELES,With License,Level 1,25.0,15.182329500000002,120.5322172,,35401000,0
306,MALOLOS MATERNITY HOSPITAL AND EYE CENTER,Private,,REGION III (CENTRAL LUZON),Bulacan,MALOLOS,With License,Level 1,21.0,14.8501312,120.82219380000001,,31410000,0
307,ISAAC AND CATALINA MEDICAL CENTER,Private,,REGION III (CENTRAL LUZON),Bataan,BALANGA,With License,Level 1,,14.685207,120.5382025,,30803000,0
308,AFABLE MEDICAL CENTER AMBULATORY CARE,Private, ,REGION III (CENTRAL LUZON),Zambales,OLONGAPO,Without License,0,,14.8387514,120.2847209,,37107000,0
309,"RAYOS-VALENTIN HOSPITAL, INC",Private,,REGION III (CENTRAL LUZON),Tarlac,PANIQUI,With License,Level 1,45.0,15.6721506,120.58228770000001,,36910000,0
310,R DE C GALVEZ MEDICAL CENTER,Private,,REGION III (CENTRAL LUZON),Bulacan,SAN ILDEFONSO,With License,Level 1,25.0,15.0802362,120.94037240000002,,31419000,0
311,MOTHER OF PERPETUAL HELP HOSPITAL,Private, ,REGION III (CENTRAL LUZON),Pampanga,ANGELES,Without License,0,,15.1410589,120.59571100000001,,35401000,0
312,OSPITAL NG GUIGUINTO,Government,Local Government Unit,REGION III (CENTRAL LUZON),Bulacan,GUIGUINTO,With License,Level 1,25.0,14.835004999999999,120.89125,,31408000,0
313,MOTHER TERESA OF CALCUTTA MEDICAL CENTER,Private,,REGION III (CENTRAL LUZON),Pampanga,SAN FERNANDO,With License,Level 2,172.0,15.065741199999998,120.65379809999999,,35416000,0
314,"TIGLAO MEDICAL CENTER FOUNDATION, INC.",Private,,REGION III (CENTRAL LUZON),Pampanga,MABALACAT,With License,Level 1,34.0,15.2305756,120.5717629,,35409000,0
315,"SEÑOR STO NIÑO HOSPITAL, INC.",Private,,REGION III (CENTRAL LUZON),Tarlac,CAMILING,With License,Level 2,40.0,15.6893282,120.4148098,,36903000,0
316,BONGABON DISTRICT HOSPITAL,Government,Local Government Unit,REGION III (CENTRAL LUZON),Nueva Ecija,BONGABON,With License,Level 1,50.0,15.6203677,121.14790649999999,,34902000,0
317,DEE HWA LIONG FOUNDATION MEDICAL CENTER- ANGELES BRANCH,Private, ,REGION III (CENTRAL LUZON),Pampanga,ANGELES,Without License,0,,15.144425,120.58883200000001,,35401000,0
318,RAFAEL LAZATIN MEMORIAL MEDICAL CENTER,Government,Local Government Unit,REGION III (CENTRAL LUZON),Pampanga,ANGELES,With License,Level 1,120.0,15.146009900000001,120.58068490000002,,35401000,0
319,GILBERTO O. TEODORO MEMORIAL HOSPITAL,Government,Local Government Unit,REGION III (CENTRAL LUZON),Tarlac,CAMILING,With License,Level 1,25.0,15.645710300000001,120.4124101,,36903000,0
320,MABALACAT DISTRICT HOSPITAL,Government,Local Government Unit,REGION III (CENTRAL LUZON),Pampanga,MABALACAT,With License,Level 1,25.0,15.1923932,120.58016429999999,,35409000,0
321,ST. CLAIRE PSYCHIATRIC HOMECARE,Private, ,REGION III (CENTRAL LUZON),Pampanga,SAN FERNANDO,Without License,0,,15.0420266,120.6676309,,35416000,0
322,M. V. GALLEGO CABANATUAN CITY GENERAL HOSPITAL,Government,Local Government Unit,REGION III (CENTRAL LUZON),Nueva Ecija,CABANATUAN,With License,Level 1,76.0,15.476437699999998,120.95772590000001,,34903000,0
323,TALON GENERAL HOSPITAL,Private,,REGION III (CENTRAL LUZON),Tarlac,TARLAC,With License,Level 2,50.0,15.4907929,120.5915393,,36916000,0
324,GUIMBA DISTRICT HOSPITAL,Government,Local Government Unit,REGION III (CENTRAL LUZON),Nueva Ecija,GUIMBA,With License,Level 1,25.0,15.691333300000002,120.7265979,,34911000,0
325,MALOLOS EENT HOSPITAL,Private, ,REGION III (CENTRAL LUZON),Bulacan,MALOLOS,Without License,0,,14.850109,120.82278600000001,,31410000,0
326,SAGRADA FAMILIA HOSPITAL,Private,,REGION III (CENTRAL LUZON),Bulacan,BALIUAG,With License,Level 1,27.0,14.9717915,120.89499579999999,,31403000,0
327,PREMIERE MEDICAL CENTER,Private,,REGION III (CENTRAL LUZON),Nueva Ecija,CABANATUAN,With License,Level 3,150.0,15.507008800000001,120.96712360000001,,34903000,0
328,JOSE SONGCO LAPID DISTRICT HOSPITAL,Government,Local Government Unit,REGION III (CENTRAL LUZON),Pampanga,PORAC,With License,Level 1,48.0,15.064303400000002,120.54860049999999,,35415000,0
329,SAN FERNANDINO HOSPITAL,Private,,REGION III (CENTRAL LUZON),Pampanga,SAN FERNANDO,With License,Level 2,90.0,15.043553099999999,120.674989,,35416000,0
330,"SANTOS GENERAL HOSPITAL OF MALOLOS, INC.",Private,,REGION III (CENTRAL LUZON),Bulacan,MALOLOS,With License,Level 1,28.0,14.832161,120.814955,,31410000,0
331,PAMPANGA MEDICAL SPECIALIST HOSPITAL,Private,,REGION III (CENTRAL LUZON),Pampanga,GUAGUA,With License,Level 2,80.0,14.9728054,120.6063419,,35407000,0
332,SAN LUIS DISTRICT HOSPITAL,Government,Local Government Unit,REGION III (CENTRAL LUZON),Pampanga,SAN LUIS,With License,Level 1,25.0,15.0526204,120.7808107,,35417000,0
333,"NUEVA ECIJA GOOD SAMARITAN HEALTH CARE SYSTEM, INC.",Private,,REGION III (CENTRAL LUZON),Nueva Ecija,CABANATUAN,With License,Level 2,100.0,15.491667199999998,120.97346100000001,,34903000,0
334,OUR LADY OF MT. CARMEL MEDICAL CENTER,Private,,REGION III (CENTRAL LUZON),Pampanga,SAN FERNANDO,With License,Level 3,108.0,15.096058900000001,120.62434909999999,,35416000,0
335,STA. CECILIA MEDICAL CENTER,Private,,REGION III (CENTRAL LUZON),Zambales,IBA,With License,Level 1,,15.320883300000002,119.9875608,,37105000,0
336,BULACAN MEDICAL CENTER,Government,Local Government Unit,REGION III (CENTRAL LUZON),Bulacan,MALOLOS,With License,Level 3,300.0,14.8586177,120.81694009999998,,31410000,0
337,BATAAN ST. JOSEPH HOSPITAL & MEDICAL CENTER CORP.,Private,,REGION III (CENTRAL LUZON),Bataan,BALANGA,With License,Level 2,50.0,14.681495199999999,120.541595,,30803000,0
338,SANTO DOMINGO DISTRICT HOSPITAL,Government,Local Government Unit,REGION III (CENTRAL LUZON),Nueva Ecija,SANTO DOMINGO,With License,Level 1,25.0,15.5915351,120.87555259999998,,34929000,0
339,ESCOLASTICA ROMERO DISTRICT HOSPITAL,Government,Local Government Unit,REGION III (CENTRAL LUZON),Pampanga,LUBAO,With License,Level 1,50.0,14.938259400000002,120.598674,,35408000,0
340,"OUR LADY OF ROSARY HOSPITAL, INC.",Private,,REGION III (CENTRAL LUZON),Pampanga,MACABEBE,With License,Level 1,20.0,14.9086753,120.715235,,35410000,0
341,WESLEYAN UNIVERSITY-PHILIPPINES,Private,,REGION III (CENTRAL LUZON),Nueva Ecija,CABANATUAN,With License,Level 2,100.0,15.485149400000001,120.9760703,,34903000,0
342,KAIROS MATERNITY AND GENERAL HOSPITAL,Private,,REGION III (CENTRAL LUZON),Bulacan,SAN JOSE DEL MONTE,With License,Level 1,,14.8030411,121.0348615,,31420000,0
343,DE JESUS GENERAL HOSPITAL,Private,,REGION III (CENTRAL LUZON),Bulacan,BALIUAG,With License,Level 1,,14.957157,120.899759,,31403000,0
344,"ST. RAPHAEL FOUNDATION MEDICAL CENTER, INC.",Private,,REGION III (CENTRAL LUZON),Pampanga,MABALACAT,With License,Level 2,80.0,15.1892816,120.5836554,,35409000,0
345,"ANGELES MEDICAL CENTER, INC.",Private,,REGION III (CENTRAL LUZON),Pampanga,ANGELES,With License,Level 2,,15.141575,120.58930900000001,,35401000,0
346,PRES. RAMON MAGSAYSAY MEMORIAL HOSPITAL,Government,Local Government Unit,REGION III (CENTRAL LUZON),Zambales,IBA,With License,Level 2,150.0,15.3163109,119.9914108,,37105000,0
347,"PREMIERE GENERAL HOSPITAL OF NUEVA ECIJA, INC. BALER- AURORA",Private,,REGION III (CENTRAL LUZON),Aurora,BALER,With License,Level 2,30.0,15.753341800000001,121.5438689,,37701000,0
348,SAN MARCELINO DISTRICT HOSPITAL,Government,Local Government Unit,REGION III (CENTRAL LUZON),Zambales,SAN MARCELINO,With License,Level 1,89.0,14.9596538,120.1682216,,37111000,0
349,MALOLOS SAN VICENTE HOSPITAL,Private,,REGION III (CENTRAL LUZON),Bulacan,MALOLOS,With License,Level 1,12.0,14.845714300000001,120.8170081,,31410000,0
350,IMMACULATE CONCEPCION POLYCLINIC AND HOSPITAL INC,Private,,REGION III (CENTRAL LUZON),Tarlac,CONCEPCION,With License,Level 1,,15.323839800000002,120.66744209999999,,36905000,0
351,EMMANUEL HOSPITAL,Private,,REGION III (CENTRAL LUZON),Bulacan,SAN MIGUEL,With License,Level 1,,15.1353407,120.96484109999999,,31421000,0
352,ST. CATHERINE OF ALEXANDRIA FOUNDATION AND MEDICAL CENTER,Private,,REGION III (CENTRAL LUZON),Pampanga,ANGELES,With License,Level 2,40.0,15.135229999999998,120.5852048,,35401000,0
353,"V.L. MAKABALI MEMORIAL HOSPITAL, INC.",Private,,REGION III (CENTRAL LUZON),Pampanga,SAN FERNANDO,With License,Level 2,97.0,15.032018599999999,120.6888467,,35416000,0
354,"BATAAN WOMEN'S HOSPITAL, INC.",Private,,REGION III (CENTRAL LUZON),Bataan,BALANGA,With License,Level 1,,14.677449800000002,120.53559070000001,,30803000,0
355,OUR LADY OF MERCY GENERAL HOSPITAL INC.,Private,,REGION III (CENTRAL LUZON),Bulacan,PULILAN,With License,Level 2,30.0,14.8929519,120.867069,,31418000,0
356,MELVERY MATERNITY AND GENERAL HOSPITAL,Private,,REGION III (CENTRAL LUZON),Bulacan,PLARIDEL,With License,Level 1,14.0,14.873087,120.861304,,31417000,0
357,EVANGELISTA HOSPITAL,Private, ,REGION III (CENTRAL LUZON),Bulacan,MEYCAUAYAN,Without License,0,,14.732859,120.958228,,31412000,0
358,THE MEDICAL CITY - ANGELES,Private, ,REGION III (CENTRAL LUZON),Pampanga,ANGELES,Without License,0,,15.178328400000002,120.571874,,35401000,0
359,"ST. PAUL HOSPITAL BULACAN, INC.",Private,,REGION III (CENTRAL LUZON),Bulacan,BOCAUE,With License,Level 2,,14.795667300000002,120.9287922,,31404000,0
360,"SACRED HEART HOSPITAL OF MALOLOS, INC.",Private,,REGION III (CENTRAL LUZON),Bulacan,MALOLOS,With License,Level 2,72.0,14.851569,120.81780559999999,,31410000,0
361,SACRED HEART MEDICAL CENTER,Private,,REGION III (CENTRAL LUZON),Pampanga,ANGELES,With License,Level 2,75.0,15.125397099999999,120.5984473,,35401000,0
362,HOLY TRINITY GENERAL HOSPITAL,Private,,REGION III (CENTRAL LUZON),Pampanga,ARAYAT,With License,Level 1,,15.1570735,120.77356100000002,,35403000,0
363,SAN MIGUEL DISTRICT HOSPITAL,Government,Local Government Unit,REGION III (CENTRAL LUZON),Bulacan,SAN MIGUEL,With License,Level 1,50.0,15.136635,120.96574299999999,,31421000,0
364,AURORA MEMORIAL HOSPITAL,Government,Local Government Unit,REGION III (CENTRAL LUZON),Aurora,BALER,With License,Level 1,49.0,15.80681,121.54198090000001,,37701000,0
365,CAMP AQUINO STATION HOSPITAL,Government,Department of National Defense,REGION III (CENTRAL LUZON),Tarlac,TARLAC,With License,Level 1,50.0,15.446763199999998,120.5883446,,36916000,0
366,DIVINE WORD HOSPITAL,Private,,REGION III (CENTRAL LUZON),Bulacan,HAGONOY,With License,Level 1,,14.839353,120.7521861,,31409000,0
367,MARY IMMACULATE MATERNITY AND GENERAL HOSPITAL,Private,,REGION III (CENTRAL LUZON),Bulacan,MALOLOS,With License,Level 1,20.0,14.8378279,120.8136601,,31410000,0
368,"CASTRO MATERNITY HOSPITAL AND MEDICAL CENTER, INC.",Private,,REGION III (CENTRAL LUZON),Bulacan,BALIUAG,With License,Level 1,78.0,14.9578093,120.90365420000002,,31403000,0
369,MT. CARMEL HOSPITAL MEDICAL CENTER OF BULACAN CORPORATION,Private,,REGION III (CENTRAL LUZON),Bulacan,BOCAUE,With License,Level 1,,14.783872,120.933026,,31404000,0
370,NAZARENUS COLLEGE FOUNDATION HOSPITAL,Private,,REGION III (CENTRAL LUZON),Bulacan,MEYCAUAYAN,With License,Level 2,100.0,14.751522400000002,120.95522930000001,,31412000,0
371,OSPITAL NING CAPAS,Government,Local Government Unit,REGION III (CENTRAL LUZON),Tarlac,CAPAS,With License,Level 1,16.0,15.3457485,120.59230670000001,,36904000,0
372,CLARK CENTRAL MEDICAL CENTER,Private, ,REGION III (CENTRAL LUZON),Pampanga,ANGELES,Without License,0,,15.166854999999998,120.583804,,35401000,0
373,CANDELARIA DISTRICT HOSPITAL,Government,Local Government Unit,REGION III (CENTRAL LUZON),Zambales,CANDELARIA,With License,Level 1,50.0,13.929979999999999,121.4206463,,37103000,0
374,CLINICA HENSON,Private,,REGION III (CENTRAL LUZON),Pampanga,ANGELES,With License,Level 1,,15.1511116,120.5923932,,35401000,0
375,CENTRAL LUZON DOCTORS HOSPITAL,Private,,REGION III (CENTRAL LUZON),Tarlac,TARLAC,With License,Level 3,,15.478179199999998,120.5869477,,36916000,0
376,ST. VINCENT EENT HOSPITAL,Private, ,REGION III (CENTRAL LUZON),Bulacan,BUSTOS,With License,0,,14.956760999999998,120.91246399999999,,31406000,0
377,ORION SAINT MICHAEL HOSPITAL,Private,,REGION III (CENTRAL LUZON),Bataan,ORION,With License,Level 1,10.0,14.620072,120.57796,,30810000,0
378,BALIUAG DISTRICT HOSPITAL,Government,Local Government Unit,REGION III (CENTRAL LUZON),Bulacan,BALIUAG,With License,Level 1,75.0,14.96989,120.913358,,31403000,0
379,MOTHER AND CHILD HOSPITAL,Private,,REGION III (CENTRAL LUZON),Zambales,OLONGAPO,With License,Level 1,18.0,14.830226000000001,120.286911,,37107000,0
380,MARCELO-PADILLA CHILDREN'S MEDICAL HOSPITAL,Private,,REGION III (CENTRAL LUZON),Bulacan,PLARIDEL,With License,Level 2,37.0,14.8886421,120.86679290000001,,31417000,0
381,GERONA HOSPITAL OF THE SACRED HEART,Private,,REGION III (CENTRAL LUZON),Tarlac,GERONA,With License,Level 1,,15.6083695,120.6053889,,36906000,0
382,JOWELL GENERAL HOSPITAL,Private,,REGION III (CENTRAL LUZON),Tarlac,PANIQUI,With License,Level 1,,15.662750899999999,120.5757032,,36910000,0
383,MEYCAUAYAN DOCTORS HOSPITAL INC.,Private,,REGION III (CENTRAL LUZON),Bulacan,MEYCAUAYAN,With License,Level 2,80.0,14.7498856,120.9739288,,31412000,0
384,PAMPANGA EENT AND GENERAL HOSPITAL,Private,,REGION III (CENTRAL LUZON),Pampanga,SAN FERNANDO,With License,Level 1,15.0,15.0213419,120.69947140000002,,35416000,0
385,"MARILAO ST. MICHAEL FAMILY HOSPITAL, INC.",Private,,REGION III (CENTRAL LUZON),Bulacan,MARILAO,With License,Level 1,25.0,14.760991699999998,120.94781100000002,,31411000,0
386,RICARDO P. RODRIGUEZ MEMORIAL HOSPITAL,Government,Local Government Unit,REGION III (CENTRAL LUZON),Pampanga,SAN FERNANDO,With License,Level 1,25.0,15.0812788,120.66166159999999,,35416000,0
387,SAN JOSE CITY GENERAL HOSPITAL,Government,Local Government Unit,REGION III (CENTRAL LUZON),Nueva Ecija,SAN JOSE,With License,Level 1,50.0,15.807488000000001,120.99989599999999,,34926000,0
388,DR. PERALTA HOSPITAL CO.,Private,,REGION III (CENTRAL LUZON),Bulacan,PLARIDEL,With License,Level 1,,14.885914000000001,120.858667,,31417000,0
389,OFELIA L. MENDOZA MATERNITY AND GENERAL HOSPITAL,Private,,REGION III (CENTRAL LUZON),Bulacan,MALOLOS,With License,Level 1,18.0,14.8674009,120.8212487,,31410000,0
390,OUR LADY OF LOURDES INTERNATIONAL MEDICAL CENTER,Private,,REGION III (CENTRAL LUZON),Zambales,OLONGAPO,With License,Level 2,99.0,14.8474256,120.2691867,,37107000,0
391,MEXICO COMMUNITY HOSPITAL,Government,Local Government Unit,REGION III (CENTRAL LUZON),Pampanga,MEXICO,With License,Level 1,50.0,15.073557500000001,120.7193676,,35413000,0
392,OUR LADY OF MT. CARMEL MEDICAL CENTER - CLARK,Private,,REGION III (CENTRAL LUZON),Pampanga,ANGELES,With License,Level 2,50.0,15.182266,120.52982800000001,,35401000,0
393,GRACE GENERAL HOSPITAL,Private,,REGION III (CENTRAL LUZON),Bulacan,SAN JOSE DEL MONTE,With License,Level 1,,14.8060057,121.0682322,,31420000,0
394,"GRAMAN MEDICAL AND MATERNITY HOSPITAL, INC.",Private,,REGION III (CENTRAL LUZON),Bulacan,MALOLOS,With License,Level 1,,14.846471,120.8346,,31410000,0
395,MATEO-MABBORANG GENERAL HOSPITAL,Private,,REGION III (CENTRAL LUZON),Bulacan,HAGONOY,With License,Level 1,23.0,14.836980800000003,120.7900555,,31409000,0
396,LA CONSOLACION UNIVERSITY GENERAL HOSPITAL,Private,,REGION III (CENTRAL LUZON),Bulacan,PLARIDEL,With License,Level 1,,14.8863619,120.86343459999999,,31417000,0
397,RICARDO P. RODRIGUEZ MEMORIAL HOSPITAL (ANNEX SPECIALTY HOSPITAL),Government,Local Government Unit,REGION III (CENTRAL LUZON),Pampanga,BACOLOR,With License,Level 1,25.0,15.0812788,120.66166159999999,,35404000,0
398,KALINGA SA KAPWA HEALTHCARE CENTER,Private,,REGION III (CENTRAL LUZON),Nueva Ecija,GENERAL TINIO,Without License,0,,17.4740422,121.35416310000001,,34910000,0
399,"SAINT JOSEPH HOSPITAL OF REMEDIOS,  INC.",Private,,REGION III (CENTRAL LUZON),Pampanga,LUBAO,With License,Level 1,50.0,14.920551199999998,120.57782879999999,,35408000,0
400,PANIQUI GENERAL HOSPITAL,Government,Local Government Unit,REGION III (CENTRAL LUZON),Tarlac,PANIQUI,With License,Level 1,24.0,15.653535999999999,120.58564779999999,,36910000,0
401,ZAMBALES MEDICAL MISSION GROUP COOP HOSPITAL,Private,,REGION III (CENTRAL LUZON),Zambales,OLONGAPO,With License,Level 1,24.0,14.842504000000002,120.28517,,37107000,0
402,"ALLIED CARE EXPERTS (ACE) MEDICAL CENTER - BALIWAG, INC.",Private,,REGION III (CENTRAL LUZON),Bulacan,BALIUAG,With License,Level 2,100.0,14.952736999999999,120.88443799999999,,31403000,0
403,"MARYMOUNT HOSPITAL, INC.",Private,,REGION III (CENTRAL LUZON),Bulacan,MEYCAUAYAN,With License,Level 2,100.0,14.764466699999998,120.98882409999999,,31412000,0
404,SKYLINE HOSPITAL AND MEDICAL CENTER,Private,,REGION III (CENTRAL LUZON),Bulacan,SAN JOSE DEL MONTE,With License,Level 2,100.0,14.7981886,121.07047759999999,,31420000,0
405,REINA DEL CIELO MATERNITY AND GENERAL HOSPITAL,Private,,REGION III (CENTRAL LUZON),Bulacan,PLARIDEL,With License,Level 1,16.0,14.886935999999999,120.86663300000001,,31417000,0
406,"THE MEDICAL CITY CLARK, INC.",Private,,REGION III (CENTRAL LUZON),Pampanga,MABALACAT,With License,Level 2,100.0,15.178328400000002,120.571874,,35409000,0
407,ARAYAT DOCTORS HOSPITAL,Private,,REGION III (CENTRAL LUZON),Pampanga,ARAYAT,With License,Level 1,,15.1490459,120.7666432,,35403000,0
408,"FLORIDABLANCA DOCTORS HOSPITAL, INC.",Private,,REGION III (CENTRAL LUZON),Pampanga,FLORIDABLANCA,With License,Level 2,,14.9867226,120.54825819999999,,35406000,0
409,M.S. MAGBITANG OSPITAL NG SAN ILDEFONSO,Private,,REGION III (CENTRAL LUZON),Bulacan,SAN ILDEFONSO,With License,Level 1,17.0,15.073998699999999,120.9431393,,31419000,0
410,"PAMPANGA PREMIER MEDICAL CENTER, INC.",Private,,REGION III (CENTRAL LUZON),Pampanga,APALIT,With License,Level 2,66.0,14.9602382,120.75913200000001,,35402000,0
411,QUALIMED HEALTH NETWORK SJDM,Private,,REGION III (CENTRAL LUZON),Bulacan,SAN JOSE DEL MONTE,,0,,14.788352800000002,121.07705,,31420000,0
412,"BRIGINO GENERAL HOSPITAL, INC.",Private,,REGION III (CENTRAL LUZON),Bulacan,SAN JOSE DEL MONTE,With License,Level 1,46.0,14.7854016,121.074577,,31420000,0
413,CAPAS MEDICAL CENTER,Private,,REGION III (CENTRAL LUZON),Tarlac,CAPAS,With License,Level 2,50.0,15.350760999999999,120.5930249,,36904000,0
414,DR. CABUCO HOSPITAL,Private,,REGION III (CENTRAL LUZON),Bulacan,SANTA MARIA,With License,Level 1,,14.826221400000001,120.9806457,,31423000,0
415,"LOVING MOTHER GENERAL HOSPITAL AND DIAGNOSTIC CENTER, INC.",Private,,REGION III (CENTRAL LUZON),Tarlac,TARLAC,With License,Level 2,100.0,15.492817800000001,120.59334869999999,,36916000,0
416,GREEN CITY MEDICAL CENTER,Private,,REGION III (CENTRAL LUZON),Pampanga,SAN FERNANDO,With License,Level 2,100.0,15.0439989,120.6857664,,35416000,0
417,"CENTRO MEDICO DE SANTISIMO ROSARIO, INC.",Private,,REGION III (CENTRAL LUZON),Bataan,BALANGA,With License,Level 2,100.0,14.6727568,120.52448259999998,,30803000,0
418,"PHILIPPINE REHABILITATION INSTITUTE (PRI) FOUNDATION, INC.",Private,,REGION III (CENTRAL LUZON),Pampanga,ANGELES,With License,Level 2,108.0,15.1483137,120.5768368,,35401000,0
419,OSPITAL NG LUNGSOD NG SAN JOSE,Government,,REGION III (CENTRAL LUZON),Nueva Ecija,SAN JOSE,With License,Level 1,23.0,15.7917068,120.99213429999999,,34926000,0
420,MARIVELES DISTRICT HOSPITAL,Government,,REGION III (CENTRAL LUZON),Bataan,MARIVELES,With License,0,25.0,14.437896599999998,120.4984277,,30807000,0
421,"CONGRESSMAN ENRIQUE ""HENRY"" M. COJUANGCO MEMORIAL DISTRICT HOSPITAL",Government,,REGION III (CENTRAL LUZON),Tarlac,MONCADA,With License,Level 1,17.0,15.732505599999998,120.57267859999999,,36909000,0
422,ST. JOHN PAUL II MEDICAL CENTER CORP.,Private,,REGION III (CENTRAL LUZON),Pampanga,MAGALANG,With License,Level 1,41.0,15.2440274,120.6551231,,35411000,0
423,NUEVA ECIJA MEDICS HOSPITAL,Private,,REGION III (CENTRAL LUZON),Nueva Ecija,SAN ISIDRO,With License,Level 1,29.0,15.3076728,120.89802549999999,,34925000,0
424,ARNAIZ HOSPITAL,Private, ,REGION IV-A (CALABAR ZON),Rizal,CAINTA,Without License,0,,14.612720000000001,121.10296699999999,,45805000,0
425,ASIA MEDIC FAMILY HOSPITAL AND MEDICAL CENTER,Private,,REGION IV-A (CALABAR ZON),Cavite,DASMARIÑAS,With License,Level 1,77.0,14.298776199999999,120.95660819999999,,42106000,0
426,ASSUMPTA MEDICAL HOSPITAL,Private, ,REGION IV-A (CALABAR ZON),Batangas,TAAL,Without License,0,,13.88594,120.9418996,,41029000,0
427,DOÑA MARTA MEMORIAL DISTRICT HOSPITAL,Government,Local Government Unit,REGION IV-A (CALABAR ZON),Quezon,ATIMONAN,With License,Level 1,50.0,13.9985628,121.9224147,,45603000,0
428,BAGONG CAINTA MUNICIPAL HOSPITAL,Government,Local Government Unit,REGION IV-A (CALABAR ZON),Rizal,CAINTA,With License,Level 1,42.0,14.5802965,121.1138887,,45805000,0
429,BAUAN DOCTORS GENERAL HOSPITAL,Private,,REGION IV-A (CALABAR ZON),Batangas,BAUAN,With License,Level 2,100.0,13.795352599999998,121.00141709999998,,41006000,0
430,CALAMBA MEDICAL CENTER,Private,,REGION IV-A (CALABAR ZON),Laguna,CALAMBA,With License,Level 2,122.0,14.206749800000003,121.1534709,,43405000,0
431,CARLOS MEDICAL AND MATERNITY HOSPITAL,Private, ,REGION IV-A (CALABAR ZON),Rizal,CARDONA,Without License,0,,14.4804464,121.22073459999999,,45806000,0
432,CHRISTIAN GENERAL HOSPITAL,Private,,REGION IV-A (CALABAR ZON),Laguna,PAGSANJAN,With License,Level 1,20.0,14.273577,121.455308,,43419000,0
433,CLARO M. RECTO MEMORIAL DISTRICT HOSPITAL,Government,Local Government Unit,REGION IV-A (CALABAR ZON),Quezon,INFANTA,With License,Level 1,39.0,14.712668300000002,121.620434,,45620000,0
434,CRISOSTOMO GENERAL HOSPITAL,Private,,REGION IV-A (CALABAR ZON),Cavite,BACOOR,With License,Level 1,20.0,14.449277300000002,120.9335072,,42103000,0
435,A. DE LA CRUZ MATERNITY HOSPITAL,Private,,REGION IV-A (CALABAR ZON),Cavite,CAVITE,With License,Level 1,11.0,14.483827300000002,120.89462920000001,,42105000,0
436,DEL CARMEN MEDICAL CLINIC,Private, ,REGION IV-A (CALABAR ZON),Quezon,CALAUAG,Without License,0,,14.064360999999998,122.36293300000001,,45607000,0
437,DLS-DR. RODOLFO R. POBLETE MEMORIAL HOSPITAL,Private,,REGION IV-A (CALABAR ZON),Cavite,ALFONSO,With License,Level 1,12.0,14.139946799999999,120.85541270000002,,42101000,0
438,BATANGAS PROVINCIAL HOSPITAL,Government,Local Government Unit,REGION IV-A (CALABAR ZON),Batangas,LEMERY,With License,Level 1,50.0,13.895174800000001,120.90721620000001,,41012000,0
439,DON MANUEL LOPEZ MEMORIAL DISTRICT HOSPITAL,Government,Local Government Unit,REGION IV-A (CALABAR ZON),Batangas,BALAYAN,With License,Level 1,50.0,13.948266,120.74730859999998,,41003000,0
440,DR. ERLINDA P. TOLENTINO MEDICAL CLINIC AND HOSPITAL,Private, ,REGION IV-A (CALABAR ZON),Quezon,UNISAN,Without License,0,,13.844079999999998,121.97149499999999,,45649000,0
441,EMIL JOANNA GENERAL HOSPITAL,Private, ,REGION IV-A (CALABAR ZON),Quezon,ATIMONAN,With License,0,,14.000708300000001,121.92415600000001,,45603000,0
442,DR. KISON'S CLINIC,Private, ,REGION IV-A (CALABAR ZON),Batangas,LIPA,Without License,0,,13.948093,121.15713000000001,,41014000,0
443,DR. MARIO D. BEJASA GENERAL HOSPITAL,Private,,REGION IV-A (CALABAR ZON),Batangas,BAUAN,With License,Level 1,27.0,13.7930777,121.00728459999999,,41006000,0
444,"DR. R. ROSALES MEMORIAL MEDICAL HOSPITAL, INC.",Private,,REGION IV-A (CALABAR ZON),Batangas,PADRE GARCIA,With License,Level 1,16.0,13.876226,121.211549,,41020000,0
445,DR. JOSE P. RIZAL MEMORIAL DISTRICT HOSPITAL,Government,Local Government Unit,REGION IV-A (CALABAR ZON),Laguna,CALAMBA,With License,Level 1,100.0,14.1916404,121.1674805,,43405000,0
446,DRA. OLIVIA SALAMANCA MEMORIAL DISTRICT HOSPITAL,Government,Local Government Unit,REGION IV-A (CALABAR ZON),Cavite,CAVITE,With License,Level 1,50.0,14.4812565,120.91142930000001,,42105000,0
447,DUQUE GENERAL HOSPITAL,Private, ,REGION IV-A (CALABAR ZON),Batangas,SAN JUAN,Without License,0,,13.816123000000001,121.3981175,,41023000,0
448,"FAMILY CARE HOSPITAL, INC.",Private,,REGION IV-A (CALABAR ZON),Laguna,SAN PEDRO,With License,Level 1,37.0,14.342363,121.058173,,43425000,0
449,GENERAL TRIAS MATERNITY AND PEDIATRIC HOSPITAL,Private,,REGION IV-A (CALABAR ZON),Cavite,GENERAL TRIAS,With License,Level 1,50.0,14.396630499999999,120.8630382,,42108000,0
450,HCGC MEDICAL PLAZA HOSPITAL,Private, ,REGION IV-A (CALABAR ZON),Cavite,CARMONA,Without License,0,,14.313082000000001,121.054308,,42104000,0
451,"GREG HOSPITAL-SARIAYA, INC.",Private,,REGION IV-A (CALABAR ZON),Quezon,SARIAYA,With License,Level 1,20.0,13.963006,121.52259709999998,,45645000,0
452,GUINAYANGAN MEDICARE COMMUNITY HOSPITAL,Government,Local Government Unit,REGION IV-A (CALABAR ZON),Quezon,GUINAYANGAN,With License,Level 1,15.0,13.925006900000001,122.4268174,,45618000,0
453,H.M. CORACHEA GENERAL HOSPITAL,Private,,REGION IV-A (CALABAR ZON),Batangas,TANAUAN,With License,Level 1,38.0,14.082096400000001,121.14583190000002,,41031000,0
454,HOSPITAL DE SAN JUAN BAUTISTA,Private, ,REGION IV-A (CALABAR ZON),Batangas,LIAN,Without License,0,,14.033970000000002,120.649874,,41013000,0
455,JESUS THE SAVIOR HOSPITAL,Private, ,REGION IV-A (CALABAR ZON),Laguna,SANTA CRUZ,Without License,0,,14.6496714,121.0270395,,43426000,0
456,KAWIT KALAYAAN HOSPITAL,Government,Local Government Unit,REGION IV-A (CALABAR ZON),Cavite,KAWIT,With License,Level 1,25.0,14.416919199999999,120.89860459999998,,42111000,0
457,LAGUNA PROVINCIAL HOSPITAL - SAN PABLO CITY DISTRICT HOSPITAL,Government,Local Government Unit,REGION IV-A (CALABAR ZON),Laguna,SAN PABLO,With License,Level 2,100.0,14.0728641,121.32874540000002,,43424000,0
458,LOBO MUNICIPAL HOSPITAL,Government,Local Government Unit,REGION IV-A (CALABAR ZON),Batangas,LOBO,With License,Level 1,14.0,13.643098499999999,121.2023547,,41015000,0
459,MAGSAYSAY MEMORIAL DISTRICT HOSPITAL,Government,Local Government Unit,REGION IV-A (CALABAR ZON),Quezon,LOPEZ,With License,Level 1,75.0,13.886097099999999,122.2639368,,45622000,0
460,LOPEZ SAINT JUDE GENERAL HOSPITAL CORP.,Private,,REGION IV-A (CALABAR ZON),Quezon,LOPEZ,With License,Level 1,65.0,13.887750199999997,122.2678408,,45622000,0
461,LUCBAN MMG HOSPITAL,Private,,REGION IV-A (CALABAR ZON),Quezon,LUCBAN,With License,Level 1,30.0,14.106528299999999,121.568771,,45623000,0
462,LUCENA UNITED DOCTORS HOSPITAL AND MEDICAL CENTER,Private,,REGION IV-A (CALABAR ZON),Quezon,LUCENA,With License,Level 2,97.0,13.947331,121.58528799999999,,45624000,0
463,MAHAL NA VIRGEN MARIA SANTO ROSARIO DISTRICT HOSPITAL,Government,Local Government Unit,REGION IV-A (CALABAR ZON),Batangas,ROSARIO,With License,Level 1,30.0,13.844590900000002,121.19720339999999,,41021000,0
464,LAGUNA PROVINCIAL HOSPITAL - MAJAYJAY MEDICARE HOSPITAL,Government,Local Government Unit,REGION IV-A (CALABAR ZON),Laguna,MAJAYJAY,With License,Level 1,15.0,14.151673800000001,121.4597368,,43416000,0
465,MARTIN MARASIGAN MEMORIAL HOSPITAL,Government,Local Government Unit,REGION IV-A (CALABAR ZON),Batangas,CUENCA,With License,Level 1,25.0,13.9008821,121.0534013,,41009000,0
466,METRO RIZAL DOCTORS HOSPITAL AND HEALTH SERVICES COOPERATIVE,Private,,REGION IV-A (CALABAR ZON),Rizal,CAINTA,With License,Level 1,28.0,14.582777499999999,121.11412720000001,,45805000,0
467,METRO LEMERY MEDICAL CENTER,Private,,REGION IV-A (CALABAR ZON),Batangas,LEMERY,With License,Level 2,72.0,13.8875292,120.91151809999998,,41012000,0
468,METRO LIPA MEDICAL CENTER,Private,,REGION IV-A (CALABAR ZON),Batangas,LIPA,With License,Level 2,48.0,13.9684328,121.166647,,41014000,0
469,MOLINO DOCTORS HOSPITAL,Private,,REGION IV-A (CALABAR ZON),Cavite,BACOOR,With License,Level 1,38.0,14.410255,120.9759893,,42103000,0
470,MORONG DOCTORS HOSPITAL,Private,,REGION IV-A (CALABAR ZON),Rizal,MORONG,With License,Level 1,25.0,14.514303,121.23941299999998,,45809000,0
471,LAGUNA PROVINCIAL HOSPITAL - NAGCARLAN DISTRICT HOSPITAL,Government,Local Government Unit,REGION IV-A (CALABAR ZON),Laguna,NAGCARLAN,With License,Level 1,25.0,14.133980800000002,121.4163166,,43417000,0
472,"OUR SAVIOR HOSPITAL, INC.",Private,,REGION IV-A (CALABAR ZON),Cavite,ROSARIO,With License,Level 1,30.0,14.414269500000001,120.856444,,42117000,0
473,PAG-ASA HOSPITAL,Private,,REGION IV-A (CALABAR ZON),Rizal,BINANGONAN,With License,Level 1,27.0,14.520663,121.156304,,45804000,0
474,"PETER PAUL MEDICAL CENTER OF CANDELARIA, INC.",Private,,REGION IV-A (CALABAR ZON),Quezon,CANDELARIA,With License,Level 2,60.0,13.926437900000002,121.42352209999999,,45608000,0
475,"PRIME GLOBAL CARE MEDICAL CENTER, INC.",Private,,REGION IV-A (CALABAR ZON),Cavite,BACOOR,With License,Level 1,12.0,14.397975299999999,120.9744575,,42103000,0
476,"SAN JOSE HOSPITAL AND MEDICAL CENTER, INC.",Private,,REGION IV-A (CALABAR ZON),Laguna,CALAMBA,With License,Level 1,42.0,14.2118271,121.12823020000002,,43405000,0
477,"SAN PEDRO DOCTORS HOSPITAL, INC.",Private,,REGION IV-A (CALABAR ZON),Laguna,SAN PEDRO,With License,Level 1,27.0,14.348862699999998,121.06491899999999,,43425000,0
478,SSMC SATELLITE HOSPITAL,Private, ,REGION IV-A (CALABAR ZON),Cavite,GENERAL TRIAS,Without License,0,,14.413831,120.85738700000002,,42108000,0
479,ST. ANDREW HOSPITAL,Private,,REGION IV-A (CALABAR ZON),Batangas,TALISAY,With License,Level 1,25.0,14.0933462,121.02595759999998,,41030000,0
480,ST. CLEMENT MEDICAL CLINIC,Private, ,REGION IV-A (CALABAR ZON),Laguna,ALAMINOS,Without License,0,,14.0644452,121.245208,,43401000,0
481,"ST. DOMINIC MEDICAL CENTER, INC.",Private,,REGION IV-A (CALABAR ZON),Cavite,BACOOR,With License,Level 2,100.0,14.4593866,120.96048689999999,,42103000,0
482,"ST. JAMES HOSPITAL, INC.",Private,,REGION IV-A (CALABAR ZON),Laguna,SANTA ROSA,With License,Level 2,80.0,14.280865799999999,121.1201108,,43428000,0
483,ST. JAMES THE GREATER HOSPITAL,Private, ,REGION IV-A (CALABAR ZON),Batangas,IBAAN,Without License,0,,13.8168798,121.1319459,,41010000,0
484,ST. MARTIN MATERNITY AND PEDIATRIC HOSPITAL,Private,,REGION IV-A (CALABAR ZON),Cavite,NOVELETA,With License,Level 1,50.0,14.4256788,120.873944,,42116000,0
485,ST. NAZARIUS MEDICAL CLINIC,Private, ,REGION IV-A (CALABAR ZON),Batangas,MALVAR,Without License,0,,14.0444119,121.15824779999998,,41017000,0
486,CALAUAG ST. PETER GENERAL HOSPITAL,Private,,REGION IV-A (CALABAR ZON),Quezon,CALAUAG,With License,Level 1,40.0,13.957709900000001,122.2860594,,45607000,0
487,SAINT VINCENT DE PAUL HOSPITAL,Private,,REGION IV-A (CALABAR ZON),Batangas,SANTO TOMAS,With License,Level 1,15.0,14.107309900000002,121.1428136,,41028000,0
488,"SANTA CRUZ LAGUNA POLYMEDIC, INC.",Private,,REGION IV-A (CALABAR ZON),Laguna,SANTA CRUZ,With License,Level 1,12.0,14.2678563,121.419843,,43426000,0
489,SANTA ROSA HOSPITAL AND MEDICAL CENTER,Private,,REGION IV-A (CALABAR ZON),Laguna,SANTA ROSA,With License,Level 2,99.0,14.287063,121.09553000000001,,43428000,0
490,STO. NIÑO MEDICAL CLINIC,Private, ,REGION IV-A (CALABAR ZON),Batangas,CUENCA,Without License,0,,13.917656,121.044652,,41009000,0
491,"STO. ROSARIO HOSPITAL, INC.",Private,,REGION IV-A (CALABAR ZON),Batangas,ROSARIO,With License,Level 1,50.0,13.8457744,121.20411599999998,,41021000,0
492,UNTALAN GENERAL HOSPITAL,Private,,REGION IV-A (CALABAR ZON),Batangas,ROSARIO,With License,Level 1,12.0,13.845264499999999,121.20633570000001,,41021000,0
493,GUMACA DISTRICT HOSPITAL,Government,Local Government Unit,REGION IV-A (CALABAR ZON),Quezon,GUMACA,With License,Level 1,75.0,13.9330624,122.0898575,,45619000,0
494,GAMEZ HOSPITAL,Private,,REGION IV-A (CALABAR ZON),Laguna,CALAMBA,With License,Level 1,12.0,14.194,121.148,,43405000,0
495,THE MEDICAL CITY SOUTH LUZON,Private,,REGION IV-A (CALABAR ZON),Laguna,SANTA ROSA,With License,Level 2,100.0,14.248464199999999,121.06722579999999,,43428000,0
496,LIPA CITY DISTRICT HOSPITAL,Government,Local Government Unit,REGION IV-A (CALABAR ZON),Batangas,LIPA,With License,Level 1,75.0,13.933554500000001,121.158891,,41014000,0
497,"IMMACULATE CONCEPCION HOSPITAL OF SAN PABLO CITY, INC.",Private,,REGION IV-A (CALABAR ZON),Laguna,SAN PABLO,With License,Level 1,25.0,14.0691033,121.3223674,,43424000,0
498,"JANE COUNTY HOSPITAL, INC.",Private,,REGION IV-A (CALABAR ZON),Quezon,PAGBILAO,With License,Level 1,12.0,13.970822,121.6825461,,45630000,0
499,LEMERY DOCTORS MEDICAL CENTER,Private,,REGION IV-A (CALABAR ZON),Batangas,LEMERY,With License,Level 2,40.0,13.8770024,120.91536709999998,,41012000,0
500,ANDRESS BONIFACIO MEMORIAL HOSPITAL,Private, ,REGION IV-A (CALABAR ZON),Cavite,TRECE MARTIRES,Without License,0,,14.2405807,120.8798969,,42122000,0
501,BAUAN GENERAL HOSPITAL,Government,Local Government Unit,REGION IV-A (CALABAR ZON),Batangas,BAUAN,With License,Level 1,45.0,13.787258,121.009327,,41006000,0
502,SAN JOSE DISTRICT HOSPITAL,Government,Local Government Unit,REGION IV-A (CALABAR ZON),Batangas,SAN JOSE,With License,Level 1,25.0,13.886524,121.104883,,41022000,0
503,MOUNT CARMEL DIOCESAN GENERAL HOSPITAL,Private,,REGION IV-A (CALABAR ZON),Quezon,LUCENA,With License,Level 2,178.0,13.940801800000001,121.61111729999999,,45624000,0
504,SALAZAR POLYCLINIC,Private,,REGION IV-A (CALABAR ZON),Batangas,LEMERY,With License,Level 1,15.0,13.929860000000001,120.875952,,41012000,0
505,RIZAL PROVINCIAL HOSPITAL SYSTEM - MORONG MAIN,Government,Local Government Unit,REGION IV-A (CALABAR ZON),Rizal,MORONG,With License,Level 1,100.0,14.516535999999999,121.239218,,45809000,0
506,H-VILL HOSPITAL,Private,,REGION IV-A (CALABAR ZON),Rizal,RODRIGUEZ,With License,Level 1,60.0,14.7267362,121.14303229999999,,45808000,0
507,SAN DIEGO DE ALCALA GENERAL HOSPITAL,Private,,REGION IV-A (CALABAR ZON),Quezon,GUMACA,With License,Level 1,20.0,13.9211991,122.1009629,,45619000,0
508,C.P. REYES HOSPITAL,Private,,REGION IV-A (CALABAR ZON),Batangas,TANAUAN,With License,Level 2,137.0,14.0844253,121.1495092,,41031000,0
509,SAN JUAN DISTRICT HOSPITAL,Government,Local Government Unit,REGION IV-A (CALABAR ZON),Batangas,SAN JUAN,With License,Level 1,25.0,13.8094815,121.40119070000001,,41023000,0
510,MEDICAL CENTER IMUS,Private,,REGION IV-A (CALABAR ZON),Cavite,IMUS,With License,Level 2,90.0,14.426003099999999,120.9463991,,42109000,0
511,"SAN JUAN DOCTORS HOSPITAL, INC.",Private,,REGION IV-A (CALABAR ZON),Batangas,SAN JUAN,With License,Level 1,28.0,13.826990300000002,121.41034850000001,,41023000,0
512,VELAZCO HOSPITAL,Private,,REGION IV-A (CALABAR ZON),Cavite,SILANG,With License,Level 1,25.0,14.234481500000001,120.97676750000001,,42118000,0
513,COMMUNITY GENERAL HOSPITAL OF SAN PABLO CITY,Private,,REGION IV-A (CALABAR ZON),Laguna,SAN PABLO,With License,Level 2,99.0,14.073024100000001,121.3129027,,43424000,0
514,BATANGAS MEDICAL CENTER,Government,Department Of Health,REGION IV-A (CALABAR ZON),Batangas,BATANGAS,With License,Level 3,400.0,13.7668617,121.0663041,,41005000,0
515,BAUTISTA HOSPITAL,Private,,REGION IV-A (CALABAR ZON),Cavite,CAVITE,With License,Level 2,60.0,14.477231900000001,120.89200100000001,,42105000,0
516,ZIGZAG HOSPITAL,Private, ,REGION IV-A (CALABAR ZON),Batangas,MABINI,Without License,0,,13.7555853,120.94544199999999,,41016000,0
517,SANTA ROSA COMMUNITY HOSPITAL,Government,Local Government Unit,REGION IV-A (CALABAR ZON),Laguna,SANTA ROSA,With License,Level 1,83.0,14.318741000000001,121.110977,,43428000,0
518,ST. MARTIN GENERAL HOSPITAL,Private, ,REGION IV-A (CALABAR ZON),Batangas,LEMERY,Without License,0,,13.885477400000001,120.9128094,,41012000,0
519,"ANGONO MEDICS HOSPITAL, INC.",Private,,REGION IV-A (CALABAR ZON),Rizal,ANGONO,With License,Level 1,87.0,14.531259,121.152869,,45801000,0
520,STO. NIÑO DE TANZA MEDICAL AND DIAGNOSTIC CENTER,Private, ,REGION IV-A (CALABAR ZON),Cavite,TANZA,Without License,0,,14.391204,120.85282600000001,,42120000,0
521,OUR LADY OF CAYSASAY MEDICAL CENTER,Private,,REGION IV-A (CALABAR ZON),Batangas,LEMERY,With License,Level 2,100.0,13.8812405,120.91544040000001,,41012000,0
522,QUEEN MARY HOSPITAL,Private,,REGION IV-A (CALABAR ZON),Batangas,IBAAN,With License,Level 1,15.0,13.821464,121.13371699999999,,41010000,0
523,FERNANDO AIR BASE HOSPITAL,Government,Department of National Defense,REGION IV-A (CALABAR ZON),Batangas,LIPA,With License,Level 1,70.0,13.946857000000001,121.127183,,41014000,0
524,SILVA'S CLINIC,Private, ,REGION IV-A (CALABAR ZON),Batangas,TANAUAN,Without License,0,,14.0820867,121.1488229,,41031000,0
525,METRO SOUTH MEDICAL CENTER,Private,,REGION IV-A (CALABAR ZON),Cavite,BACOOR,With License,Level 2,50.0,14.3738256,120.9797643,,42103000,0
526,QUEEN MARY HELP OF CHRISTIAN HOSPITAL INC.,Private,,REGION IV-A (CALABAR ZON),Rizal,CARDONA,With License,Level 1,48.0,14.490884,121.23405,,45806000,0
527,BONDOC PENINSULA DISTRICT HOSPITAL,Government,Local Government Unit,REGION IV-A (CALABAR ZON),Quezon,CATANAUAN,With License,Level 1,25.0,13.591756,122.3251007,,45610000,0
528,UNIVERSITY HEALTH SERVICE,Government,Local Government Unit,REGION IV-A (CALABAR ZON),Laguna,LOS BAÑOS,With License,Level 1,30.0,14.1622147,121.2386946,,43411000,0
529,HEALTHSERV LOS BAÑOS MEDICAL CENTER,Private,,REGION IV-A (CALABAR ZON),Laguna,LOS BAÑOS,With License,Level 2,78.0,14.1788568,121.2413943,,43411000,0
530,LUCENA MMG GENERAL HOSPITAL,Private,,REGION IV-A (CALABAR ZON),Quezon,LUCENA,With License,Level 2,95.0,13.944977,121.63091499999999,,45624000,0
531,MANILA EAST MEDICAL CENTER,Private,,REGION IV-A (CALABAR ZON),Rizal,TAYTAY,With License,Level 2,99.0,14.517795800000002,121.15880390000001,,45813000,0
532,SOLOMONS CLINIC,Private, ,REGION IV-A (CALABAR ZON),Batangas,SAN JUAN,Without License,0,,13.8255007,121.3941794,,41023000,0
533,HOLY ROSARY HOSPITAL,Private,,REGION IV-A (CALABAR ZON),Quezon,LOPEZ,With License,Level 1,60.0,13.8736423,122.26298329999999,,45622000,0
534,"IMUS FAMILY HOSPITAL,INC.",Private,,REGION IV-A (CALABAR ZON),Cavite,IMUS,With License,Level 1,15.0,14.432502,120.94631000000001,,42109000,0
535,CENTRAL AZUCARRERA DON PEDRO HOSPITAL,Private,,REGION IV-A (CALABAR ZON),Batangas,NASUGBU,With License,Level 1,20.0,14.052270000000002,120.6625246,,41019000,0
536,CAVITE NAVAL HOSPITAL,Government,Department of National Defense,REGION IV-A (CALABAR ZON),Cavite,CAVITE,With License,Level 1,100.0,14.482262,120.9166217,,42105000,0
537,"BLESSED TRINITY MATERNITY AND MEDICAL HOSPITAL, INC.",Private,,REGION IV-A (CALABAR ZON),Rizal,ANTIPOLO,With License,Level 1,24.0,14.624604399999999,121.12570520000001,,45802000,0
538,CAVITE MEDICAL CENTER,Private,,REGION IV-A (CALABAR ZON),Cavite,CAVITE,With License,Level 2,60.0,14.4633367,120.88181840000001,,42105000,0
539,CALAMBA DOCTORS' HOSPITAL,Private,,REGION IV-A (CALABAR ZON),Laguna,CALAMBA,With License,Level 2,120.0,14.217535,121.14219140000002,,43405000,0
540,EMILIO AGUINALDO COLLEGE MEDICAL CENTER,Private,,REGION IV-A (CALABAR ZON),Cavite,DASMARIÑAS,With License,Level 2,154.0,14.3486249,120.9397007,,42106000,0
541,KAWIT MATERNITY AND GENERAL HOSPITAL,Private, ,REGION IV-A (CALABAR ZON),Cavite,KAWIT,Without License,0,,14.446587,120.9060726,,42111000,0
542,"SAN ANTONIO MEDICAL CENTER OF LIPA, INC.",Private,,REGION IV-A (CALABAR ZON),Batangas,LIPA,With License,Level 2,25.0,13.9422655,121.1650712,,41014000,0
543,ST. MICHAEL MEDICAL HOSPITAL,Private,,REGION IV-A (CALABAR ZON),Cavite,BACOOR,With License,Level 1,48.0,14.4095705,120.97675659999999,,42103000,0
544,SAN FRANCISCO MUNICIPAL HOSPITAL,Government,Local Government Unit,REGION IV-A (CALABAR ZON),Quezon,SAN FRANCISCO,With License,Level 1,10.0,13.3521079,122.5217521,,45642000,0
545,N.L. VILLA MEMORIAL MEDICAL CENTER,Private,,REGION IV-A (CALABAR ZON),Batangas,LIPA,With License,Level 2,99.0,13.938799900000001,121.16543670000001,,41014000,0
546,SAN PEDRO JOSE L. AMANTE EMERGENCY HOSPITAL,Government,Local Government Unit,REGION IV-A (CALABAR ZON),Laguna,SAN PEDRO,With License,Level 1,12.0,14.364995,121.055953,,43425000,0
547,ST. NICHOLAS DOCTORS HOSPITAL,Private, ,REGION IV-A (CALABAR ZON),Batangas,SAN NICOLAS,Without License,0,,18.1470823,120.58546740000001,,41025000,0
548,SAINT PATRICK'S HOSPITAL MEDICAL CENTER,Private,,REGION IV-A (CALABAR ZON),Batangas,BATANGAS,With License,Level 3,100.0,13.7555318,121.060235,,41005000,0
549,SANTO TOMAS MUNICIPAL HOSPITAL,Government,Local Government Unit,REGION IV-A (CALABAR ZON),Batangas,SANTO TOMAS,Without License,0,,14.1081267,121.14168259999998,,41028000,0
550,GENERAL EMILIO AGUINALDO MEMORIAL HOSPITAL,Government,Local Government Unit,REGION IV-A (CALABAR ZON),Cavite,TRECE MARTIRES,With License,Level 3,284.0,14.2759968,120.8697399,,42122000,0
551,LAGUNA PROVINCIAL HOSPITAL - GEN. J. CAILLES MEMORIAL DISTRICT HOSPITAL,Government,Local Government Unit,REGION IV-A (CALABAR ZON),Laguna,PAKIL,With License,Level 1,50.0,14.385437099999999,121.4781991,,43420000,0
552,QUEZON MEDICAL CENTER,Government,Local Government Unit,REGION IV-A (CALABAR ZON),Quezon,LUCENA,With License,Level 2,200.0,13.942184699999999,121.61246750000001,,45624000,0
553,SORIANO-LEYBLE MEDICAL AND MATERNITY HOSPITAL,Private, ,REGION IV-A (CALABAR ZON),Rizal,ANTIPOLO,Without License,0,,14.588398999999999,121.177225,,45802000,0
554,ST. JUDE FAMILY HOSPITAL,Private,,REGION IV-A (CALABAR ZON),Laguna,LOS BAÑOS,With License,Level 1,35.0,14.173410999999998,121.24350919999999,,43411000,0
555,PAMANA MEDICAL CENTER,Private,,REGION IV-A (CALABAR ZON),Laguna,CALAMBA,With License,Level 1,35.0,14.1983573,121.1615578,,43405000,0
556,SSMC SATELLITE HOSPITAL - ROSARIO BRANCH,Private, ,REGION IV-A (CALABAR ZON),Cavite,ROSARIO,Without License,0,,14.413816699999998,120.857395,,42117000,0
557,PAGSANJAN MEDICAL CLINIC AND GENERAL HOSPITAL,Private,,REGION IV-A (CALABAR ZON),Laguna,PAGSANJAN,With License,Level 1,25.0,14.272321900000001,121.4557752,,43419000,0
558,DE LA SALLE UNIVERSITY MEDICAL CENTER,Private,,REGION IV-A (CALABAR ZON),Cavite,DASMARIÑAS,With License,Level 3,250.0,14.327174,120.943408,,42106000,0
559,"NAIC DOCTORS HOSPITAL, INC.",Private,,REGION IV-A (CALABAR ZON),Cavite,NAIC,With License,Level 1,30.0,14.3144955,120.7710023,,42115000,0
560,"ST. FRANCES CABRINI MEDICAL CENTER, INC.",Private,,REGION IV-A (CALABAR ZON),Batangas,SANTO TOMAS,With License,Level 2,100.0,14.1090533,121.1457749,,41028000,0
561,FIRST FILIPINO SAINT HOSPITAL,Private,,REGION IV-A (CALABAR ZON),Cavite,NAIC,With License,Level 1,40.0,14.3082789,120.80163759999999,,42115000,0
562,"ST. ANNE GENERAL HOSPITAL, INC.",Private,,REGION IV-A (CALABAR ZON),Quezon,LUCENA,With License,Level 2,80.0,13.937568599999999,121.61868249999999,,45624000,0
563,PALMA-MALALUAN HOSPITAL,Private,,REGION IV-A (CALABAR ZON),Batangas,ROSARIO,With License,Level 1,25.0,13.8442524,121.20478020000002,,41021000,0
564,TUY GENERAL HOSPITAL,Private, ,REGION IV-A (CALABAR ZON),Batangas,TUY,Without License,0,,14.019668900000001,120.7297415,,41034000,0
565,"ST. MATTHEUS MEDICAL HOSPITAL, INC.",Private,,REGION IV-A (CALABAR ZON),Rizal,SAN MATEO,With License,Level 1,50.0,14.673783499999999,121.10983119999999,,45811000,0
566,SAN NARCISO MUNICIPAL HOSPITAL,Government,Local Government Unit,REGION IV-A (CALABAR ZON),Quezon,SAN NARCISO,With License,Level 1,10.0,13.5702,122.563493,,45644000,0
567,SANTO TOMAS GENERAL HOSPITAL,Private,,REGION IV-A (CALABAR ZON),Batangas,SANTO TOMAS,With License,Level 1,18.0,14.09826,121.147259,,41028000,0
568,CATALAN MEDICAL HOSPITAL,Private, ,REGION IV-A (CALABAR ZON),Cavite,CARMONA,Without License,0,,14.311926000000001,121.054378,,42104000,0
569,"ST. JOHN THE BAPTIST MEDICAL CENTER, INC.",Private,,REGION IV-A (CALABAR ZON),Laguna,CALAMBA,With License,Level 1,35.0,14.2119032,121.156952,,43405000,0
570,E. CONTRERAS MEDICAL CLINIC,Private,,REGION IV-A (CALABAR ZON),Cavite,ROSARIO,With License,Level 1,24.0,14.413328699999997,120.8575742,,42117000,0
571,MARY MEDIATRIX MEDICAL CENTER,Private,,REGION IV-A (CALABAR ZON),Batangas,LIPA,With License,Level 3,200.0,13.943957399999999,121.15226329999999,,41014000,0
572,SAN ISIDRO HOSPITAL,Private,,REGION IV-A (CALABAR ZON),Rizal,ANGONO,With License,Level 1,20.0,14.525732999999999,121.15323000000001,,45801000,0
573,"UNCIANO COLLEGES AND GENERAL HOSPITAL, INC.",Private,,REGION IV-A (CALABAR ZON),Rizal,ANTIPOLO,With License,Level 2,100.0,14.580169,121.1715139,,45802000,0
574,UNISAN MEDICARE COMMUNITY HOSPITAL,Government,Local Government Unit,REGION IV-A (CALABAR ZON),Quezon,UNISAN,With License,Level 1,10.0,13.843291,121.97318899999999,,45649000,0
575,YNARES MUNICIPAL HOSPITAL,Government,Local Government Unit,REGION IV-A (CALABAR ZON),Rizal,JALAJALA,With License,Level 1,10.0,14.3620958,121.32966189999999,,45807000,0
576,TAAL POLYMEDIC HOSPITAL AND MEDICAL CENTER,Private,,REGION IV-A (CALABAR ZON),Batangas,TAAL,With License,Level 2,40.0,13.88594,120.9418996,,41029000,0
577,ALABAT ISLAND DISTRICT HOSPITAL,Government,Local Government Unit,REGION IV-A (CALABAR ZON),Quezon,ALABAT,With License,Level 1,25.0,14.1018247,122.01467720000001,,45602000,0
578,PAETE GENERAL HOSPITAL,Private,,REGION IV-A (CALABAR ZON),Laguna,PAETE,With License,Level 1,15.0,14.355685500000002,121.4843274,,43418000,0
579,LOS BAÑOS DOCTORS HOSPITAL AND MEDICAL CENTER,Private,,REGION IV-A (CALABAR ZON),Laguna,LOS BAÑOS,With License,Level 2,80.0,14.170873199999999,121.24316529999999,,43411000,0
580,TANZA FAMILY GENERAL HOSPITAL AND PHARMACY,Private,,REGION IV-A (CALABAR ZON),Cavite,TANZA,With License,Level 1,30.0,14.390294,120.84910190000001,,42120000,0
581,"EVANGELISTA MEDICAL SPECIALTY HOSPITAL, INC.",Private,,REGION IV-A (CALABAR ZON),Laguna,SAN PEDRO,With License,Level 1,50.0,14.341956099999999,121.05830630000001,,43425000,0
582,ANTIPOLO DOCTORS HOSPITAL,Private,,REGION IV-A (CALABAR ZON),Rizal,ANTIPOLO,With License,Level 1,47.0,14.574379,121.17707800000001,,45802000,0
583,RIZAL PROVINCIAL HOSPITAL SYSTEM - ANGONO ANNEX,Government,Local Government Unit,REGION IV-A (CALABAR ZON),Rizal,ANGONO,With License,Level 1,75.0,14.526667100000001,121.1521308,,45801000,0
584,SILANG DOCTORS HOSPITAL,Private, ,REGION IV-A (CALABAR ZON),Cavite,SILANG,Without License,0,,14.226154199999998,120.97365079999999,,42118000,0
585,STS. FRANCIS AND PAUL GENERAL HOSPITAL,Private,,REGION IV-A (CALABAR ZON),Laguna,SAN PABLO,With License,Level 1,30.0,14.057245000000002,121.32968100000001,,43424000,0
586,UPH - DR. JOSE G. TAMAYO MEDICAL CENTER,Private,,REGION IV-A (CALABAR ZON),Laguna,BIÑAN,With License,Level 3,250.0,14.330284400000002,121.08510430000001,,43403000,0
587,LAGUNA PROVINCIAL HOSPITAL - BAY DISTRICT HOSPITAL,Government,Local Government Unit,REGION IV-A (CALABAR ZON),Laguna,BAY,With License,Level 1,25.0,14.1734479,121.1942095,,43402000,0
588,"LAGUNA DOCTORS HOSPITAL, INC.",Private,,REGION IV-A (CALABAR ZON),Laguna,SANTA CRUZ,With License,Level 2,96.0,14.2726263,121.4190933,,43426000,0
589,"ST. MAZENOD HOSPITAL, INC.",Private,,REGION IV-A (CALABAR ZON),Cavite,SILANG,With License,Level 1,12.0,14.2824573,120.99763459999998,,42118000,0
590,ESTRELLA HOSPITAL,Private,,REGION IV-A (CALABAR ZON),Cavite,SILANG,With License,Level 1,20.0,14.2246147,120.96854109999998,,42118000,0
591,OSPITAL NG CABUYAO,Government,Local Government Unit,REGION IV-A (CALABAR ZON),Laguna,CABUYAO,With License,Level 1,40.0,14.275873,121.12622900000001,,43404000,0
592,GOLDEN GATE GENERAL HOSPITAL,Private,,REGION IV-A (CALABAR ZON),Batangas,BATANGAS,With License,Level 2,100.0,13.757669199999999,121.0617348,,41005000,0
593,TANAY GENERAL HOSPITAL,Private,,REGION IV-A (CALABAR ZON),Rizal,TANAY,With License,Level 1,29.0,14.495470999999998,121.289875,,45812000,0
594,GONZALES MEDICAL AND CHILDRENS HOSPITAL,Private,,REGION IV-A (CALABAR ZON),Batangas,TANAUAN,With License,Level 1,38.0,14.082892000000001,121.149156,,41031000,0
595,HOLY FAMILY MEDICAL CLINIC,Private, ,REGION IV-A (CALABAR ZON),Batangas,LIPA,Without License,0,,13.942376999999999,121.16434699999999,,41014000,0
596,DIVINE CARE HOSPITAL MULTI SERVICES CORP.,Private,,REGION IV-A (CALABAR ZON),Batangas,SAN JUAN,With License,Level 1,21.0,13.880407,121.034641,,41023000,0
597,DANIEL O. MERCADO MEDICAL CENTER,Private,,REGION IV-A (CALABAR ZON),Batangas,TANAUAN,With License,Level 3,127.0,14.0799057,121.1507919,,41031000,0
598,DIVINE LOVE GENERAL HOSPITAL,Private,,REGION IV-A (CALABAR ZON),Batangas,LIPA,With License,Level 1,35.0,13.9367989,121.15855159999998,,41014000,0
599,ANTIPOLO CITY MEDICAL HOSPITAL,Private,,REGION IV-A (CALABAR ZON),Rizal,ANTIPOLO,With License,Level 1,40.0,14.629233,121.12400500000001,,45802000,0
600,RIZAL PROVINCIAL HOSPITAL SYSTEM - ANTIPOLO ANNEX,Government,Local Government Unit,REGION IV-A (CALABAR ZON),Rizal,ANTIPOLO,With License,Level 1,50.0,14.6195413,121.18034320000001,,45802000,0
601,APACIBLE MEMORIAL DISTRICT HOSPITAL,Government,Local Government Unit,REGION IV-A (CALABAR ZON),Batangas,NASUGBU,With License,Level 1,50.0,14.051038,120.6472732,,41019000,0
